date,city,latitude,longitude,goal3Completions,goal5Completions,sessions
2018-09-10,(not set),0.0000,0.0000,0,0,1
2018-09-10,Aberdeen,57.1497,-2.0943,0,0,1
2018-09-10,Abingdon,51.6708,-1.2880,0,0,2
2018-09-10,Alkmaar,52.6324,4.7534,0,0,1
2018-09-10,Alloa,56.1141,-3.7919,0,0,2
2018-09-10,Arbroath,56.5591,-2.5915,0,0,1
2018-09-10,Austin,30.2672,-97.7431,0,0,1
2018-09-10,Ayr,55.4586,-4.6292,0,0,1
2018-09-10,Bedzin,50.3256,19.1254,0,0,1
2018-09-10,Belfast,54.5973,-5.9301,0,0,2
2018-09-10,Bengaluru,12.9716,77.5946,0,0,1
2018-09-10,Berlin,52.5200,13.4050,0,0,1
2018-09-10,Borehamwood,51.6577,-0.2723,0,0,1
2018-09-10,Boston,42.3601,-71.0589,0,0,3
2018-09-10,Brighton,50.8225,-0.1372,0,0,1
2018-09-10,Cambridge,52.2053,0.1218,0,0,2
2018-09-10,Cannock,52.6999,-2.0218,0,0,1
2018-09-10,Casablanca,33.5731,-7.5898,0,0,1
2018-09-10,Chennai,13.0827,80.2707,0,0,1
2018-09-10,Clydebank,55.9001,-4.4048,0,0,2
2018-09-10,Cognac,45.6910,-0.3287,0,0,1
2018-09-10,Cumbernauld,55.9457,-3.9925,0,0,2
2018-09-10,Daventry,52.2575,-1.1649,0,0,1
2018-09-10,Drama,41.2067,24.1915,0,0,1
2018-09-10,Dumfries,55.0709,-3.6051,0,0,2
2018-09-10,Dundee,56.4620,-2.9707,0,0,1
2018-09-10,Dunfermline,56.0717,-3.4522,0,0,1
2018-09-10,East Kilbride,55.7644,-4.1770,0,0,1
2018-09-10,Edinburgh,55.9533,-3.1883,0,0,1
2018-09-10,Fort Worth,32.7555,-97.3308,0,0,1
2018-09-10,Four Corners,28.3297,-81.6319,0,0,35
2018-09-10,Freiburg im Breisgau,47.9990,7.8421,0,0,1
2018-09-10,Glasgow,55.8642,-4.2518,0,0,1
2018-09-10,Glenrothes,56.2008,-3.1599,0,0,1
2018-09-10,Gliwice,50.2945,18.6714,0,0,1
2018-09-10,Greenock,55.9565,-4.7720,0,0,1
2018-09-10,Hamilton,55.7776,-4.0537,0,0,1
2018-09-10,Haverfordwest,51.8005,-4.9713,0,0,1
2018-09-10,Horley,51.1735,-0.1721,0,0,2
2018-09-10,Hove,50.8279,-0.1687,0,0,1
2018-09-10,Inverurie,57.2835,-2.3740,0,0,1
2018-09-10,Ipswich,52.0567,1.1482,0,0,1
2018-09-10,Irvine,55.6116,-4.6696,0,0,1
2018-09-10,Jacksonville,34.7541,-77.4302,0,0,38
2018-09-10,Kilmarnock,55.6147,-4.4988,0,0,1
2018-09-10,Kilwinning,55.6559,-4.7031,0,0,1
2018-09-10,King's Lynn,52.7517,0.4023,0,0,2
2018-09-10,Kirkcaldy,56.1168,-3.1581,0,0,2
2018-09-10,Kirkintilloch,55.9392,-4.1562,0,0,2
2018-09-10,Klaipeda,55.7033,21.1443,0,0,1
2018-09-10,Kyiv,50.4501,30.5234,0,0,1
2018-09-10,Leeds,53.8008,-1.5491,0,0,1
2018-09-10,Lichfield,52.6816,-1.8317,0,0,2
2018-09-10,Livingston,55.9007,-3.5181,0,0,1
2018-09-10,London,51.5074,-0.1278,0,0,1
2018-09-10,Melbourne,-37.8136,144.9631,0,0,1
2018-09-10,Memphis,35.1495,-90.0490,0,0,1
2018-09-10,Mexico City,19.4326,-99.1332,0,0,1
2018-09-10,Milan,45.4642,9.1900,0,0,1
2018-09-10,Montreal,45.5017,-73.5673,0,0,1
2018-09-10,Motherwell,55.7832,-3.9811,0,0,1
2018-09-10,Mumbai,19.0760,72.8777,0,0,1
2018-09-10,Munich,48.1351,11.5820,0,0,1
2018-09-10,New York,40.7128,-74.0060,0,0,1
2018-09-10,Newbury,51.4014,-1.3231,0,0,1
2018-09-10,Newcastle upon Tyne,54.9783,-1.6178,0,0,2
2018-09-10,North Berwick,56.0584,-2.7196,0,0,1
2018-09-10,Northbridge,42.1516,-71.6494,0,0,1
2018-09-10,Norwich,52.6309,1.2974,0,0,1
2018-09-10,Oakland,37.8044,-122.2711,0,0,1
2018-09-10,Opole,50.6751,17.9213,0,0,1
2018-09-10,Oxford,51.7520,-1.2577,0,0,1
2018-09-10,Paisley,55.8473,-4.4401,0,0,1
2018-09-10,Perth,56.3950,-3.4308,0,0,1
2018-09-10,Phnom Penh,11.5564,104.9282,0,0,1
2018-09-10,Portsmouth,50.8198,-1.0880,0,0,1
2018-09-10,Prague,50.0755,14.4378,0,0,1
2018-09-10,Reading,51.4543,-0.9781,0,0,2
2018-09-10,Redcar,54.5975,-1.0780,0,0,2
2018-09-10,Redwood City,37.4852,-122.2364,0,0,1
2018-09-10,Reykjavik,64.1265,-21.8174,0,0,1
2018-09-10,Santos,-23.9561,-46.3264,0,0,1
2018-09-10,Schnecksville,40.6749,-75.6179,0,0,1
2018-09-10,Seattle,47.6062,-122.3321,0,0,1
2018-09-10,Simi Valley,34.2694,-118.7815,0,0,1
2018-09-10,Singapore,1.3554,103.8677,0,0,1
2018-09-10,Sofia,42.6977,23.3219,0,0,1
2018-09-10,Stirling,56.1165,-3.9369,0,0,1
2018-09-10,Stockport,53.4106,-2.1575,0,0,1
2018-09-10,Stone Mountain,33.8082,-84.1702,0,0,1
2018-09-10,Toronto,43.6532,-79.3832,0,0,1
2018-09-10,Vienna,48.2082,16.3738,0,0,5
2018-09-10,Virginia Beach,36.8529,-75.9780,0,0,1
2018-09-10,Walsall,52.5862,-1.9829,0,0,1
2018-09-10,Washington,38.9072,-77.0369,0,0,5
2018-09-10,Waterlooville,50.8903,-1.0288,0,0,2
2018-09-10,Wellington,-41.2865,174.7762,0,0,1
2018-09-10,Zatec,50.3272,13.5458,0,0,1
2018-09-11,(not set),0.0000,0.0000,0,0,1
2018-09-11,Aberdeen,57.1497,-2.0943,0,0,1
2018-09-11,Abu Dhabi,24.4539,54.3773,0,0,2
2018-09-11,Antwerp,51.2194,4.4025,0,0,1
2018-09-11,Ashburn,39.0438,-77.4874,0,0,1
2018-09-11,Ayr,55.4586,-4.6292,0,0,1
2018-09-11,Bath,51.3758,-2.3599,0,0,1
2018-09-11,Bedzin,50.3256,19.1254,0,0,3
2018-09-11,Beeston,52.9239,-1.2124,0,0,2
2018-09-11,Bengaluru,12.9716,77.5946,0,0,1
2018-09-11,Berlin,52.5200,13.4050,0,0,1
2018-09-11,Birstall,52.6763,-1.1194,0,0,1
2018-09-11,Blantyre,55.7939,-4.0949,0,0,1
2018-09-11,Bogota,4.7110,-74.0721,0,0,1
2018-09-11,Brentford,51.4861,-0.3101,0,0,1
2018-09-11,Brighton,50.8225,-0.1372,0,0,2
2018-09-11,Bristol,51.4545,-2.5879,0,0,1
2018-09-11,Buenos Aires,-34.6037,-58.3816,0,0,1
2018-09-11,Cagayan de Oro,8.4542,124.6319,0,0,2
2018-09-11,Cambridge,52.2053,0.1218,0,0,1
2018-09-11,Cannock,52.6999,-2.0218,0,0,1
2018-09-11,Clydebank,55.9001,-4.4048,0,0,2
2018-09-11,Cranston,41.7798,-71.4373,0,0,1
2018-09-11,Croydon,51.3762,-0.0982,0,0,2
2018-09-11,Cumbernauld,55.9457,-3.9925,0,0,1
2018-09-11,Dubai,25.2048,55.2708,0,0,1
2018-09-11,Dumfries,55.0709,-3.6051,0,0,3
2018-09-11,Dundee,56.4620,-2.9707,0,0,1
2018-09-11,Dunfermline,56.0717,-3.4522,0,0,3
2018-09-11,East Kilbride,55.7644,-4.1770,0,0,3
2018-09-11,Edinburgh,55.9533,-3.1883,0,0,1
2018-09-11,Glasgow,55.8642,-4.2518,0,0,5
2018-09-11,Glengormley,54.6798,-5.9594,0,0,1
2018-09-11,Glenrothes,56.2008,-3.1599,0,0,1
2018-09-11,Greenock,55.9565,-4.7720,0,0,2
2018-09-11,Hamilton,55.7776,-4.0537,0,0,1
2018-09-11,Hanoi,21.0278,105.8342,0,0,1
2018-09-11,Havant,50.8518,-0.9847,0,0,2
2018-09-11,Hickory,35.7345,-81.3445,0,0,1
2018-09-11,Horley,51.1735,-0.1721,0,0,3
2018-09-11,Hungerford,51.4123,-1.5180,0,0,1
2018-09-11,Ibiza,38.9067,1.4206,0,0,1
2018-09-11,Inverness,57.4778,-4.2247,0,0,1
2018-09-11,Irvine,55.6116,-4.6696,0,0,1
2018-09-11,Johnstone,55.8373,-4.5139,0,0,1
2018-09-11,Kigali,-1.9706,30.1044,0,0,1
2018-09-11,Kirkintilloch,55.9392,-4.1562,0,0,1
2018-09-11,Kirriemuir,56.6751,-3.0035,0,0,1
2018-09-11,Leeds,53.8008,-1.5491,0,0,1
2018-09-11,Leicester,52.6369,-1.1398,0,0,1
2018-09-11,Lichfield,52.6816,-1.8317,0,0,1
2018-09-11,Liverpool,53.4084,-2.9916,0,0,1
2018-09-11,Livingston,55.9007,-3.5181,0,0,1
2018-09-11,London,51.5074,-0.1278,0,0,1
2018-09-11,Los Angeles,34.0522,-118.2437,0,0,2
2018-09-11,Maidstone,51.2704,0.5227,0,0,1
2018-09-11,Middletown,41.5218,-71.2835,0,0,1
2018-09-11,Milan,45.4642,9.1900,0,0,1
2018-09-11,Mirfield,53.6801,-1.6967,0,0,1
2018-09-11,Mumbai,19.0760,72.8777,0,0,1
2018-09-11,Musselburgh,55.9419,-3.0539,0,0,1
2018-09-11,Nazran,43.2149,44.7763,0,0,1
2018-09-11,New York,40.7128,-74.0060,0,0,4
2018-09-11,Newcastle upon Tyne,54.9783,-1.6178,0,0,1
2018-09-11,North Berwick,56.0584,-2.7196,0,0,2
2018-09-11,Oldham,53.5409,-2.1114,0,0,1
2018-09-11,Oxford,51.7520,-1.2577,0,0,1
2018-09-11,Paisley,55.8473,-4.4401,0,0,2
2018-09-11,Paris,48.8566,2.3522,0,0,13
2018-09-11,Pasig,14.5764,121.0851,0,0,1
2018-09-11,Penrith,54.6641,-2.7527,0,0,1
2018-09-11,Philadelphia,39.9526,-75.1652,0,0,2
2018-09-11,Pickering,43.8384,-79.0868,0,0,1
2018-09-11,Prague,50.0755,14.4378,0,0,3
2018-09-11,Quezon City,14.6760,121.0437,0,0,1
2018-09-11,Reading,51.4543,-0.9781,0,0,1
2018-09-11,Redwood City,37.4852,-122.2364,0,0,1
2018-09-11,Rutherglen,55.8290,-4.2243,0,0,1
2018-09-11,San Francisco,37.7749,-122.4194,0,0,1
2018-09-11,Sandy Springs,33.9304,-84.3733,0,0,2
2018-09-11,Seattle,47.6062,-122.3321,0,0,1
2018-09-11,Sheffield,53.3811,-1.4701,0,0,1
2018-09-11,Solna,59.3689,18.0084,0,0,1
2018-09-11,Southampton,50.9097,-1.4044,0,0,28
2018-09-11,St Andrews,56.3398,-2.7967,0,0,3
2018-09-11,Stirling,56.1165,-3.9369,0,0,1
2018-09-11,Stockport,53.4106,-2.1575,0,0,1
2018-09-11,Sutton Courtenay,51.6292,-1.2708,0,0,1
2018-09-11,Taby,59.4419,18.0703,0,0,1
2018-09-11,Teddington,51.4268,-0.3313,0,0,1
2018-09-11,The Hague,52.0705,4.3007,0,0,1
2018-09-11,Thessaloniki,40.6401,22.9444,0,0,1
2018-09-11,Valenzuela,14.7011,120.9830,0,0,2
2018-09-11,Vantaa,60.2935,25.0377,0,0,4
2018-09-11,West Bromwich,52.5177,-1.9952,0,0,1
2018-09-11,Windsor,51.4817,-0.6136,0,0,1
2018-09-11,Wollaston,52.2547,-0.6678,0,0,1
2018-09-11,Zevenaar,51.9294,6.0770,0,0,1
2018-09-12,(not set),0.0000,0.0000,0,0,1
2018-09-12,Aberdeen,57.1497,-2.0943,0,0,1
2018-09-12,Annemasse,46.1933,6.2342,0,0,3
2018-09-12,Ashburn,39.0438,-77.4874,0,0,1
2018-09-12,Asuncion,-25.2637,-57.5759,0,0,1
2018-09-12,Barrhead,55.7967,-4.3977,0,0,1
2018-09-12,Bedzin,50.3256,19.1254,0,0,1
2018-09-12,Bengaluru,12.9716,77.5946,0,0,1
2018-09-12,Brighton,50.8225,-0.1372,0,0,1
2018-09-12,Bristol,51.4545,-2.5879,0,0,2
2018-09-12,Budapest,47.4979,19.0402,0,0,1
2018-09-12,Canberra,-35.3075,149.1244,0,0,1
2018-09-12,Clydebank,55.9001,-4.4048,0,0,1
2018-09-12,Coatbridge,55.8622,-4.0193,0,0,1
2018-09-12,Cornwall,45.0213,-74.7303,0,0,1
2018-09-12,Coventry,52.4068,-1.5197,0,0,2
2018-09-12,Cumbernauld,55.9457,-3.9925,0,0,3
2018-09-12,Dallas,32.7767,-96.7970,0,0,1
2018-09-12,Donostia-San Sebastian,43.3183,-1.9812,0,0,1
2018-09-12,Dublin,53.3498,-6.2603,0,0,5
2018-09-12,Dundee,56.4620,-2.9707,0,0,1
2018-09-12,Dunfermline,56.0717,-3.4522,0,0,2
2018-09-12,East Kilbride,55.7644,-4.1770,0,0,1
2018-09-12,East Lansing,42.7370,-84.4839,0,0,1
2018-09-12,Edinburgh,55.9533,-3.1883,0,0,1
2018-09-12,Falkirk,56.0019,-3.7839,0,0,81
2018-09-12,Gatineau,45.4765,-75.7013,0,0,1
2018-09-12,Glasgow,55.8642,-4.2518,0,0,2
2018-09-12,Greenock,55.9565,-4.7720,0,0,1
2018-09-12,Hamilton,55.7776,-4.0537,0,0,1
2018-09-12,Harpenden,51.8185,-0.3590,0,0,2
2018-09-12,Hong Kong,22.2800,114.1588,0,0,1
2018-09-12,Ibiza,38.9067,1.4206,0,0,4
2018-09-12,Ipswich,52.0567,1.1482,0,0,1
2018-09-12,Irvine,55.6116,-4.6696,0,0,1
2018-09-12,Jakarta,-6.2088,106.8456,0,0,6
2018-09-12,Jersey City,40.7282,-74.0776,0,0,8
2018-09-12,Kigali,-1.9706,30.1044,0,0,1
2018-09-12,Kilmarnock,55.6147,-4.4988,0,0,1
2018-09-12,Kilwinning,55.6559,-4.7031,0,0,4
2018-09-12,Kirkintilloch,55.9392,-4.1562,0,0,1
2018-09-12,Lagos,6.5244,3.3792,0,0,2
2018-09-12,Las Vegas,36.1699,-115.1398,0,0,1
2018-09-12,Leeds,53.8008,-1.5491,0,0,1
2018-09-12,Lewes,50.8739,0.0088,0,0,1
2018-09-12,Livingston,55.9007,-3.5181,0,0,1
2018-09-12,London,51.5074,-0.1278,0,0,1
2018-09-12,Maidenhead,51.5224,-0.7219,0,0,1
2018-09-12,Melbourne,-37.8136,144.9631,0,0,1
2018-09-12,Minneapolis,44.9778,-93.2650,0,0,1
2018-09-12,Musselburgh,55.9419,-3.0539,0,0,2
2018-09-12,New Orleans,29.9511,-90.0715,0,0,2
2018-09-12,New York,40.7128,-74.0060,0,0,3
2018-09-12,Newcastle upon Tyne,54.9783,-1.6178,0,0,1
2018-09-12,North Berwick,56.0584,-2.7196,0,0,1
2018-09-12,Northampton,52.2405,-0.9027,0,0,2
2018-09-12,Oldham,53.5409,-2.1114,0,0,7
2018-09-12,Oxford,51.7520,-1.2577,0,0,1
2018-09-12,Oyer Municipality,61.2633,10.4160,0,0,5
2018-09-12,Perth,56.3950,-3.4308,0,0,2
2018-09-12,Peterborough,52.5695,-0.2405,0,0,1
2018-09-12,Phillipsburg,40.6937,-75.1902,0,0,1
2018-09-12,Phoenix,33.4484,-112.0740,0,0,1
2018-09-12,Plantation,26.1276,-80.2331,0,0,1
2018-09-12,Plymouth,50.3755,-4.1427,0,0,1
2018-09-12,Portadown,54.4203,-6.4548,0,0,1
2018-09-12,Reading,40.3356,-75.9269,0,0,1
2018-09-12,Redwood City,37.4852,-122.2364,0,0,1
2018-09-12,Renfrew,55.8753,-4.3915,0,0,1
2018-09-12,Rochdale,53.6097,-2.1561,0,0,1
2018-09-12,Rotterdam,51.9244,4.4777,0,0,3
2018-09-12,Saltillo,25.4383,-100.9737,0,0,2
2018-09-12,Sao Paulo,-23.5505,-46.6333,0,0,12
2018-09-12,Seoul,37.5665,126.9780,0,0,1
2018-09-12,Seremban,2.7259,101.9378,0,0,1
2018-09-12,Skelmersdale,53.5504,-2.7764,0,0,1
2018-09-12,Sofia,42.6977,23.3219,0,0,1
2018-09-12,Solihull,52.4118,-1.7776,0,0,1
2018-09-12,Stirling,56.1165,-3.9369,0,0,1
2018-09-12,Stjordal Municipality,63.4678,10.9176,0,0,1
2018-09-12,Stonehouse,55.6987,-3.9839,0,0,1
2018-09-12,Stratford-upon-Avon,52.1917,-1.7083,0,0,2
2018-09-12,Sugar Land,29.6197,-95.6349,0,0,1
2018-09-12,Suwon-si,37.2636,127.0286,0,0,2
2018-09-12,Taunggyi,20.7888,97.0337,0,0,1
2018-09-12,Tbilisi,41.7151,44.8271,0,0,3
2018-09-12,The Hague,52.0705,4.3007,0,0,10
2018-09-12,Toronto,43.6532,-79.3832,0,0,2
2018-09-12,Valencia,39.4699,-0.3763,0,0,4
2018-09-12,Valletta,35.8989,14.5146,0,0,5
2018-09-12,Vancouver,49.2827,-123.1207,0,0,1
2018-09-12,Warsaw,52.2297,21.0122,0,0,2
2018-09-12,Waterford,52.2593,-7.1101,0,0,1
2018-09-12,Wilmslow,53.3280,-2.2294,0,0,3
2018-09-12,Windsor,51.4817,-0.6136,0,0,1
2018-09-12,Wuhan,30.5928,114.3055,0,0,1
2018-09-13,(not set),0.0000,0.0000,0,0,1
2018-09-13,Aberdeen,57.1497,-2.0943,0,0,2
2018-09-13,Alloa,56.1141,-3.7919,0,0,2
2018-09-13,Annemasse,46.1933,6.2342,0,0,1
2018-09-13,Ascot,51.4062,-0.6756,0,0,1
2018-09-13,Auckland,-36.8485,174.7633,0,0,1
2018-09-13,Bedzin,50.3256,19.1254,0,0,1
2018-09-13,Birmingham,52.4862,-1.8904,0,0,1
2018-09-13,Blackburn,53.7486,-2.4875,0,0,1
2018-09-13,Bo'ness,56.0130,-3.6035,0,0,1
2018-09-13,Bradford,53.7960,-1.7594,0,0,1
2018-09-13,Brighton,50.8225,-0.1372,0,0,1
2018-09-13,Cairo,30.0444,31.2357,0,0,2
2018-09-13,Cambridge,52.2053,0.1218,0,0,1
2018-09-13,Clifton,40.8584,-74.1638,0,0,1
2018-09-13,Columbus,39.9612,-82.9988,0,0,1
2018-09-13,Crewe,53.1004,-2.4438,0,0,1
2018-09-13,Cypress,29.9717,-95.6938,0,0,1
2018-09-13,Denver,39.7392,-104.9902,0,0,1
2018-09-13,Draper,40.5247,-111.8638,0,0,2
2018-09-13,Dublin,53.3498,-6.2603,0,0,3
2018-09-13,Dumbarton,55.9453,-4.5646,0,0,1
2018-09-13,Dundee,56.4620,-2.9707,0,0,2
2018-09-13,Dunfermline,56.0717,-3.4522,0,0,1
2018-09-13,Durham,54.7752,-1.5849,0,0,2
2018-09-13,East Brunswick,40.4317,-74.4050,0,0,3
2018-09-13,East Kilbride,55.7644,-4.1770,0,0,1
2018-09-13,Edinburgh,55.9533,-3.1883,0,0,2
2018-09-13,Ellesmere Port,53.2798,-2.8974,0,0,1
2018-09-13,Exeter,50.7184,-3.5339,0,0,1
2018-09-13,Fort Collins,40.5853,-105.0844,0,0,2
2018-09-13,Frankfurt,50.1109,8.6821,0,0,2
2018-09-13,Glasgow,55.8642,-4.2518,0,0,1
2018-09-13,Glenrothes,56.2008,-3.1599,0,0,1
2018-09-13,Gothenburg,57.7089,11.9746,0,0,1
2018-09-13,Gurgaon,28.4595,77.0266,0,0,1
2018-09-13,Hamilton,55.7776,-4.0537,0,0,1
2018-09-13,Harpenden,51.8185,-0.3590,0,0,1
2018-09-13,Hatfield,53.5706,-0.9564,0,0,1
2018-09-13,Irvine,55.6116,-4.6696,0,0,1
2018-09-13,Jakarta,-6.2088,106.8456,0,0,2
2018-09-13,Jersey City,40.7282,-74.0776,0,0,1
2018-09-13,Kanpur,26.4499,80.3319,0,0,3
2018-09-13,Kilmarnock,55.6147,-4.4988,0,0,1
2018-09-13,Kilwinning,55.6559,-4.7031,0,0,2
2018-09-13,King's Lynn,52.7517,0.4023,0,0,1
2018-09-13,Kirkcaldy,56.1168,-3.1581,0,0,2
2018-09-13,Kirkintilloch,55.9392,-4.1562,0,0,3
2018-09-13,La Canada Flintridge,34.2068,-118.2000,0,0,4
2018-09-13,Leeds,53.8008,-1.5491,0,0,1
2018-09-13,Livingston,55.9007,-3.5181,0,0,1
2018-09-13,London,51.5074,-0.1278,0,0,3
2018-09-13,Manchester,53.4808,-2.2426,0,0,2
2018-09-13,Milwaukee,43.0389,-87.9065,0,0,2
2018-09-13,Musselburgh,55.9419,-3.0539,0,0,3
2018-09-13,New Delhi,28.6139,77.2090,0,0,3
2018-09-13,New York,40.7128,-74.0060,0,0,1
2018-09-13,Newcastle,-32.9283,151.7817,0,0,1
2018-09-13,Newcastle upon Tyne,54.9783,-1.6178,0,0,2
2018-09-13,North Berwick,56.0584,-2.7196,0,0,1
2018-09-13,Ottawa,45.4215,-75.6972,0,0,1
2018-09-13,Ouagadougou,12.3714,-1.5197,0,0,1
2018-09-13,Paisley,55.8473,-4.4401,0,0,11
2018-09-13,Paris,48.8566,2.3522,0,0,2
2018-09-13,Phnom Penh,11.5564,104.9282,0,0,1
2018-09-13,Porto,41.1579,-8.6291,0,0,1
2018-09-13,Portsmouth,50.8198,-1.0880,1,0,83
2018-09-13,Renfrew,55.8753,-4.3915,0,0,4
2018-09-13,Retford,53.3214,-0.9455,0,0,1
2018-09-13,Reykjavik,64.1265,-21.8174,0,0,1
2018-09-13,Richmond,37.9358,-122.3477,0,0,1
2018-09-13,Rutherglen,55.8290,-4.2243,0,0,1
2018-09-13,Saltillo,25.4383,-100.9737,0,0,2
2018-09-13,San Jose,37.3382,-121.8863,0,0,1
2018-09-13,San Pedro Garza Garcia,25.6573,-100.4017,0,0,1
2018-09-13,Sarajevo,43.8563,18.4131,0,0,1
2018-09-13,Shanghai,31.2304,121.4737,0,0,2
2018-09-13,Sheffield,53.3811,-1.4701,0,0,1
2018-09-13,Slough,51.5105,-0.5950,0,1,1
2018-09-13,Stirling,56.1165,-3.9369,0,0,1
2018-09-13,Stoke-on-Trent,53.0027,-2.1794,0,0,1
2018-09-13,Stonehouse,55.6987,-3.9839,0,0,2
2018-09-13,Sydney,-33.8688,151.2093,0,0,1
2018-09-13,The Hague,52.0705,4.3007,0,0,1
2018-09-13,Veldhoven,51.4176,5.4060,0,0,1
2018-09-13,Vienna,48.2082,16.3738,0,0,1
2018-09-13,Warsaw,52.2297,21.0122,0,0,1
2018-09-13,Zapopan,20.6720,-103.4165,0,0,3
2018-09-14,(not set),0.0000,0.0000,0,0,1
2018-09-14,Aberdeen,57.1497,-2.0943,0,0,1
2018-09-14,Alameda,37.7652,-122.2416,0,0,2
2018-09-14,Ayr,55.4586,-4.6292,0,0,1
2018-09-14,Baku,40.4093,49.8671,0,0,1
2018-09-14,Bangkok,13.7563,100.5018,0,0,2
2018-09-14,Bangor,54.6542,-5.6731,0,0,1
2018-09-14,Barnsley,53.5526,-1.4797,0,0,1
2018-09-14,Bath,51.3758,-2.3599,0,0,1
2018-09-14,Bedzin,50.3256,19.1254,0,0,1
2018-09-14,Belton,38.8120,-94.5319,0,0,1
2018-09-14,Berea,-29.8518,30.9934,0,0,1
2018-09-14,Bo'ness,56.0130,-3.6035,0,0,1
2018-09-14,Brighton,50.8225,-0.1372,0,0,1
2018-09-14,Bristol,51.4545,-2.5879,0,0,1
2018-09-14,Brockenhurst,50.8189,-1.5757,0,0,1
2018-09-14,Burlington,43.3255,-79.7990,0,0,1
2018-09-14,Burton upon Trent,52.8140,-1.6371,0,0,3
2018-09-14,Cambridge,52.2053,0.1218,0,0,2
2018-09-14,Cape Town,-33.9249,18.4241,0,0,2
2018-09-14,Charlotte,35.2271,-80.8431,0,0,1
2018-09-14,Charlottetown,46.2382,-63.1311,0,0,1
2018-09-14,Croydon,51.3762,-0.0982,0,0,1
2018-09-14,Cumbernauld,55.9457,-3.9925,0,0,1
2018-09-14,Dundee,56.4620,-2.9707,0,0,1
2018-09-14,Dunfermline,56.0717,-3.4522,0,0,1
2018-09-14,East Kilbride,55.7644,-4.1770,0,0,3
2018-09-14,Edinburgh,55.9533,-3.1883,0,0,1
2018-09-14,Ensenada,31.8667,-116.5964,0,0,2
2018-09-14,Galway,53.2707,-9.0568,0,0,1
2018-09-14,Glasgow,55.8642,-4.2518,0,0,5
2018-09-14,Gomel,52.4412,30.9878,0,0,1
2018-09-14,Greenock,55.9565,-4.7720,0,0,1
2018-09-14,Guildford,51.2362,-0.5704,0,0,2
2018-09-14,Guwahati,26.1445,91.7362,0,0,1
2018-09-14,Hamilton,55.7776,-4.0537,0,0,1
2018-09-14,Hatfield,53.5706,-0.9564,0,0,1
2018-09-14,Helsinki,60.1699,24.9384,0,0,1
2018-09-14,Huntington,38.4193,-82.4452,0,0,3
2018-09-14,Jersey City,40.7282,-74.0776,0,0,1
2018-09-14,Kirkcaldy,56.1168,-3.1581,0,0,1
2018-09-14,Kirkintilloch,55.9392,-4.1562,0,0,1
2018-09-14,Kula,45.6111,19.5361,0,0,1
2018-09-14,Las Vegas,36.1699,-115.1398,0,0,1
2018-09-14,Lexington,42.4430,-71.2290,0,0,3
2018-09-14,Livingston,55.9007,-3.5181,0,0,1
2018-09-14,London,51.5074,-0.1278,0,0,1
2018-09-14,Los Angeles,34.0522,-118.2437,0,0,3
2018-09-14,Loughman,28.2420,-81.5667,0,0,2
2018-09-14,Lucknow,26.8467,80.9462,0,0,1
2018-09-14,Lviv,49.8397,24.0297,0,0,1
2018-09-14,Mahwah,41.0886,-74.1436,0,0,1
2018-09-14,Medellin,6.2442,-75.5812,0,0,1
2018-09-14,Melbourne,-37.8136,144.9631,0,0,1
2018-09-14,Montreuil,48.8638,2.4485,0,0,3
2018-09-14,Muju-gun,36.0068,127.6608,0,0,1
2018-09-14,Mumbai,19.0760,72.8777,0,0,1
2018-09-14,Musselburgh,55.9419,-3.0539,0,0,1
2018-09-14,New York,40.7128,-74.0060,0,0,1
2018-09-14,Newcastle upon Tyne,54.9783,-1.6178,0,0,1
2018-09-14,Nicosia,35.1856,33.3823,0,0,1
2018-09-14,Ottawa,45.4215,-75.6972,0,0,1
2018-09-14,Paisley,55.8473,-4.4401,0,0,1
2018-09-14,Paris,48.8566,2.3522,0,0,1
2018-09-14,Penarth,51.4388,-3.1735,0,0,2
2018-09-14,Plymouth,50.3755,-4.1427,0,0,1
2018-09-14,Preston,53.7632,-2.7031,0,0,2
2018-09-14,Rabat,33.9716,-6.8498,0,0,1
2018-09-14,Renfrew,55.8753,-4.3915,0,0,2
2018-09-14,Reno,39.5296,-119.8138,0,0,86
2018-09-14,Rotterdam,51.9244,4.4777,0,0,1
2018-09-14,Sacramento,38.5816,-121.4944,0,0,29
2018-09-14,Saltillo,25.4383,-100.9737,0,0,1
2018-09-14,San Francisco,37.7749,-122.4194,0,0,2
2018-09-14,San Gwann,35.9077,14.4752,0,0,1
2018-09-14,Sandwich,51.2740,1.3374,0,0,6
2018-09-14,Sheffield,53.3811,-1.4701,0,0,1
2018-09-14,Stafford,52.8067,-2.1207,0,0,2
2018-09-14,Stirling,56.1165,-3.9369,0,0,3
2018-09-14,Teddington,51.4268,-0.3313,0,0,1
2018-09-14,Uttoxeter,52.8981,-1.8658,0,0,1
2018-09-14,Warsaw,52.2297,21.0122,0,0,1
2018-09-14,Washington,38.9072,-77.0369,0,0,1
2018-09-14,Zurich,47.3769,8.5417,0,0,1
2018-09-15,(not set),0.0000,0.0000,0,0,2
2018-09-15,Alloa,56.1141,-3.7919,0,0,1
2018-09-15,Arbroath,56.5591,-2.5915,0,0,2
2018-09-15,Belfast,54.5973,-5.9301,0,0,1
2018-09-15,Bengaluru,12.9716,77.5946,0,0,1
2018-09-15,Berkhamsted,51.7598,-0.5679,0,0,1
2018-09-15,Bolton,53.5769,-2.4282,0,0,1
2018-09-15,Brighton,50.8225,-0.1372,0,0,1
2018-09-15,Brisbane,-27.4698,153.0251,0,0,1
2018-09-15,Brummen,52.0902,6.1580,0,0,1
2018-09-15,Burnley,53.7893,-2.2405,0,0,1
2018-09-15,Chengdu,30.5728,104.0668,0,0,3
2018-09-15,Clydebank,55.9001,-4.4048,0,0,1
2018-09-15,Colombes,48.9221,2.2533,0,0,1
2018-09-15,Cumbernauld,55.9457,-3.9925,0,0,1
2018-09-15,Dundee,56.4620,-2.9707,0,0,1
2018-09-15,East Kilbride,55.7644,-4.1770,0,0,1
2018-09-15,Edinburgh,55.9533,-3.1883,0,0,1
2018-09-15,Fredericksburg,38.3032,-77.4605,0,0,2
2018-09-15,Galway,53.2707,-9.0568,0,0,6
2018-09-15,Glasgow,55.8642,-4.2518,0,0,2
2018-09-15,Glenrothes,56.2008,-3.1599,0,0,2
2018-09-15,Gorebridge,55.8367,-3.0461,0,0,5
2018-09-15,Helsinki,60.1699,24.9384,0,0,1
2018-09-15,Houston,29.7604,-95.3698,0,1,68
2018-09-15,Inverness,57.4778,-4.2247,0,0,1
2018-09-15,Ixelles,50.8333,4.3666,0,0,1
2018-09-15,Johnstone,55.8373,-4.5139,0,0,2
2018-09-15,Kilwinning,55.6559,-4.7031,0,0,1
2018-09-15,Kirkcaldy,56.1168,-3.1581,0,0,1
2018-09-15,Leavenworth,39.3111,-94.9225,0,0,3
2018-09-15,Leeds,53.8008,-1.5491,0,0,1
2018-09-15,Lisbon,38.7223,-9.1393,0,0,1
2018-09-15,Livingston,55.9007,-3.5181,0,0,1
2018-09-15,London,51.5074,-0.1278,0,0,1
2018-09-15,Londonderry,54.9966,-7.3086,0,0,1
2018-09-15,Los Angeles,34.0522,-118.2437,0,0,1
2018-09-15,Lucknow,26.8467,80.9462,0,0,1
2018-09-15,Madrid,40.4168,-3.7038,0,0,1
2018-09-15,Manchester,53.4808,-2.2426,0,0,1
2018-09-15,Milwaukee,43.0389,-87.9065,0,0,2
2018-09-15,Motherwell,55.7832,-3.9811,0,0,1
2018-09-15,Musselburgh,55.9419,-3.0539,0,0,1
2018-09-15,New York,40.7128,-74.0060,0,0,1
2018-09-15,Newcastle upon Tyne,54.9783,-1.6178,0,0,3
2018-09-15,North Shields,55.0108,-1.4491,0,0,1
2018-09-15,Nottingham,52.9548,-1.1581,0,0,1
2018-09-15,Paris,48.8566,2.3522,0,0,3
2018-09-15,Porto,41.1579,-8.6291,0,0,2
2018-09-15,Portsmouth,50.8198,-1.0880,0,0,1
2018-09-15,Renfrew,55.8753,-4.3915,0,0,3
2018-09-15,Reykjavik,64.1265,-21.8174,0,0,3
2018-09-15,Rosyth,56.0365,-3.4231,0,0,1
2018-09-15,Rutherglen,55.8290,-4.2243,0,0,1
2018-09-15,St Austell,50.3404,-4.7834,0,0,1
2018-09-15,Stirling,56.1165,-3.9369,0,0,1
2018-09-15,Stockport,53.4106,-2.1575,0,0,1
2018-09-15,Stonehouse,55.6987,-3.9839,0,0,1
2018-09-15,Surabaya,-7.2575,112.7521,0,0,1
2018-09-15,Thessaloniki,40.6401,22.9444,0,0,1
2018-09-15,Uttoxeter,52.8981,-1.8658,0,0,1
2018-09-15,Warsaw,52.2297,21.0122,0,0,1
2018-09-15,Windermere,54.3807,-2.9068,0,0,1
2018-09-16,(not set),0.0000,0.0000,0,0,1
2018-09-16,Aberdeen,57.1497,-2.0943,0,0,1
2018-09-16,Ashington,55.1830,-1.5660,0,0,1
2018-09-16,Boston,42.3601,-71.0589,0,0,43
2018-09-16,Brampton,43.7315,-79.7624,0,0,1
2018-09-16,Brighton,50.8225,-0.1372,0,0,2
2018-09-16,Colombes,48.9221,2.2533,0,0,35
2018-09-16,Como,45.8081,9.0852,0,0,1
2018-09-16,Coventry,52.4068,-1.5197,0,0,1
2018-09-16,Curitiba,-25.4244,-49.2654,0,0,2
2018-09-16,Dubai,25.2048,55.2708,0,0,1
2018-09-16,Dundee,56.4620,-2.9707,0,0,1
2018-09-16,Dunfermline,56.0717,-3.4522,0,0,1
2018-09-16,East Kilbride,55.7644,-4.1770,0,0,2
2018-09-16,Edinburgh,55.9533,-3.1883,0,0,1
2018-09-16,Elmont,40.7009,-73.7129,0,0,1
2018-09-16,Falkirk,56.0019,-3.7839,0,0,1
2018-09-16,Glasgow,55.8642,-4.2518,0,0,65
2018-09-16,Glenrothes,56.2008,-3.1599,0,0,1
2018-09-16,Gorebridge,55.8367,-3.0461,0,0,2
2018-09-16,Greenock,55.9565,-4.7720,0,0,1
2018-09-16,Hamilton,55.7776,-4.0537,0,0,2
2018-09-16,Ipswich,52.0567,1.1482,0,0,1
2018-09-16,Irvine,55.6116,-4.6696,0,0,1
2018-09-16,Jinan,36.6512,117.1201,0,0,1
2018-09-16,Joinville,-26.3044,-48.8464,0,0,1
2018-09-16,Kathmandu,27.7172,85.3240,0,0,1
2018-09-16,Kettering,52.3963,-0.7302,0,0,1
2018-09-16,Kirkintilloch,55.9392,-4.1562,0,0,1
2018-09-16,Kuala Lumpur,3.1390,101.6869,0,0,1
2018-09-16,Kungalv,57.8698,11.9740,0,0,2
2018-09-16,Leeds,53.8008,-1.5491,0,0,3
2018-09-16,Livingston,55.9007,-3.5181,0,0,1
2018-09-16,London,51.5074,-0.1278,1,0,3
2018-09-16,Manchester,53.4808,-2.2426,0,0,1
2018-09-16,Melbourne,-37.8136,144.9631,0,0,2
2018-09-16,Motherwell,55.7832,-3.9811,0,0,1
2018-09-16,Musselburgh,55.9419,-3.0539,0,0,1
2018-09-16,New York,40.7128,-74.0060,0,0,2
2018-09-16,Newcastle upon Tyne,54.9783,-1.6178,0,0,1
2018-09-16,Nottingham,52.9548,-1.1581,0,0,4
2018-09-16,Palma,39.5696,2.6502,0,1,98
2018-09-16,Panguitch,37.8228,-112.4358,0,0,1
2018-09-16,Perth,56.3950,-3.4308,0,0,1
2018-09-16,Puchong,3.0327,101.6188,0,0,1
2018-09-16,Renfrew,55.8753,-4.3915,0,0,2
2018-09-16,Stirling,56.1165,-3.9369,0,0,1
2018-09-16,Thessaloniki,40.6401,22.9444,0,0,1
2018-09-16,Tilbury,51.4630,0.3605,0,0,1
2018-09-16,Toronto,43.6532,-79.3832,0,0,1
2018-09-16,Vienna,48.2082,16.3738,0,0,1
2018-09-16,Wednesbury,52.5529,-2.0221,0,0,1
2018-09-16,Yangon,16.8661,96.1951,0,0,1
2018-09-17,(not set),0.0000,0.0000,0,0,1
2018-09-17,Aberdeen,57.1497,-2.0943,0,0,2
2018-09-17,Abuja,9.0765,7.3986,0,0,1
2018-09-17,Belfast,54.5973,-5.9301,0,0,1
2018-09-17,Bellshill,55.8168,-4.0265,0,0,1
2018-09-17,Bengaluru,12.9716,77.5946,0,0,1
2018-09-17,Bournemouth,50.7192,-1.8808,0,0,1
2018-09-17,Brampton,43.7315,-79.7624,0,0,1
2018-09-17,Brentford,51.4861,-0.3101,0,0,1
2018-09-17,Brighton,43.1223,-77.5734,0,0,1
2018-09-17,Brighton,50.8225,-0.1372,0,0,1
2018-09-17,Clydebank,55.9001,-4.4048,0,0,1
2018-09-17,Coatbridge,55.8622,-4.0193,0,0,3
2018-09-17,Croydon,51.3762,-0.0982,0,0,2
2018-09-17,Cumbernauld,55.9457,-3.9925,0,0,1
2018-09-17,Darlington,54.5236,-1.5595,0,0,1
2018-09-17,Dumbarton,55.9453,-4.5646,0,0,1
2018-09-17,Dundee,56.4620,-2.9707,0,0,1
2018-09-17,Dunfermline,56.0717,-3.4522,0,0,1
2018-09-17,Dupnica,42.2613,23.1124,0,0,2
2018-09-17,Durgapur,23.5204,87.3119,0,0,5
2018-09-17,East Kilbride,55.7644,-4.1770,0,0,61
2018-09-17,Edinburgh,55.9533,-3.1883,0,0,1
2018-09-17,Falkirk,56.0019,-3.7839,0,0,2
2018-09-17,Farnham,51.2143,-0.7988,0,0,1
2018-09-17,Fort Lauderdale,26.1224,-80.1373,0,0,1
2018-09-17,Gallatin,36.3884,-86.4467,0,0,2
2018-09-17,Glasgow,55.8642,-4.2518,0,0,1
2018-09-17,Goldenrod,28.6103,-81.2887,0,0,1
2018-09-17,Gorebridge,55.8367,-3.0461,0,0,1
2018-09-17,Gurgaon,28.4595,77.0266,0,0,1
2018-09-17,Hemel Hempstead,51.7532,-0.4486,0,0,1
2018-09-17,Hyderabad,17.3850,78.4867,0,0,4
2018-09-17,Irvine,55.6116,-4.6696,0,0,1
2018-09-17,Kanpur,26.4499,80.3319,0,0,1
2018-09-17,Karachi,24.8607,67.0011,0,0,1
2018-09-17,Kilmarnock,55.6147,-4.4988,0,0,1
2018-09-17,Kilwinning,55.6559,-4.7031,0,0,1
2018-09-17,Kingsbridge,50.2839,-3.7775,0,0,26
2018-09-17,Kingston,50.6163,-2.0620,0,0,3
2018-09-17,Lagos,6.5244,3.3792,0,0,1
2018-09-17,Lexington,42.4430,-71.2290,0,0,1
2018-09-17,Lisbon,38.7223,-9.1393,0,0,2
2018-09-17,Livingston,55.9007,-3.5181,0,0,1
2018-09-17,London,51.5074,-0.1278,0,0,1
2018-09-17,Long Beach,33.7701,-118.1937,0,0,1
2018-09-17,Loughborough,52.7721,-1.2062,0,0,3
2018-09-17,Lviv,49.8397,24.0297,0,0,1
2018-09-17,Markham,43.8561,-79.3370,0,0,2
2018-09-17,Mississauga,43.5890,-79.6441,0,0,1
2018-09-17,Motherwell,55.7832,-3.9811,0,0,1
2018-09-17,Mountain View,37.3861,-122.0839,0,0,1
2018-09-17,Mumbai,19.0760,72.8777,0,0,1
2018-09-17,Musselburgh,55.9419,-3.0539,0,0,1
2018-09-17,New York,40.7128,-74.0060,0,0,1
2018-09-17,Newcastle,43.9178,-78.5875,0,0,1
2018-09-17,Newcastle upon Tyne,54.9783,-1.6178,0,0,1
2018-09-17,Noida,28.5355,77.3910,0,0,5
2018-09-17,North Kuta,-8.6597,115.1633,0,0,1
2018-09-17,Northampton,52.2405,-0.9027,0,0,1
2018-09-17,Nottingham,52.9548,-1.1581,0,0,1
2018-09-17,Paisley,55.8473,-4.4401,0,0,1
2018-09-17,Peebles,55.6531,-3.1936,0,0,2
2018-09-17,Perth,56.3950,-3.4308,0,0,4
2018-09-17,Peterborough,52.5695,-0.2405,0,0,1
2018-09-17,Portsmouth,50.8198,-1.0880,0,0,1
2018-09-17,Reading,51.4543,-0.9781,0,0,6
2018-09-17,Romsey,50.9889,-1.4966,0,0,1
2018-09-17,Sale,53.4256,-2.3237,0,0,1
2018-09-17,San Francisco,37.7749,-122.4194,0,0,1
2018-09-17,San Pablo de las Salinas,19.6745,-99.0792,0,0,42
2018-09-17,Santander,43.4623,-3.8100,0,0,1
2018-09-17,Scarborough,54.2831,-0.3998,0,0,5
2018-09-17,Smyrna,33.8840,-84.5144,0,0,1
2018-09-17,St Helens,53.4563,-2.7371,0,0,2
2018-09-17,Stirling,56.1165,-3.9369,0,0,1
2018-09-17,Stockholm,59.3293,18.0686,0,0,1
2018-09-17,Stockport,53.4106,-2.1575,0,0,2
2018-09-17,Sydney,-33.8688,151.2093,0,0,1
2018-09-17,Teddington,51.4268,-0.3313,0,0,4
2018-09-17,Tipp City,39.9584,-84.1722,0,0,1
2018-09-17,Warsaw,52.2297,21.0122,0,0,3
2018-09-17,Washington,38.9072,-77.0369,0,0,1
2018-09-17,Wombourne,52.5385,-2.1821,0,0,1
2018-09-18,(not set),0.0000,0.0000,0,0,2
2018-09-18,Aberdeen,57.1497,-2.0943,0,0,4
2018-09-18,Aberystwyth,52.4153,-4.0829,0,0,1
2018-09-18,Alness,57.6960,-4.2568,0,0,1
2018-09-18,Bari,41.1171,16.8719,0,0,2
2018-09-18,Barrhead,55.7967,-4.3977,0,0,1
2018-09-18,Basildon,51.5761,0.4887,0,0,1
2018-09-18,Bedzin,50.3256,19.1254,0,0,3
2018-09-18,Bengaluru,12.9716,77.5946,0,0,5
2018-09-18,Berlin,52.5200,13.4050,0,0,1
2018-09-18,Bern,46.9480,7.4474,0,0,2
2018-09-18,Bo'ness,56.0130,-3.6035,0,0,1
2018-09-18,Bolton,53.5769,-2.4282,0,0,3
2018-09-18,Brampton,43.7315,-79.7624,0,0,1
2018-09-18,Brighton,50.8225,-0.1372,0,0,1
2018-09-18,Broadstairs,51.3602,1.4320,0,0,1
2018-09-18,Campbell,37.2872,-121.9500,0,0,5
2018-09-18,Cannock,52.6999,-2.0218,0,0,1
2018-09-18,Charlotte,35.2271,-80.8431,0,0,1
2018-09-18,Chelmsford,51.7356,0.4685,0,0,1
2018-09-18,Coleraine,55.1326,-6.6646,0,0,1
2018-09-18,Cologne,50.9375,6.9603,0,0,1
2018-09-18,Conway,35.0887,-92.4421,0,0,1
2018-09-18,Cumbernauld,55.9457,-3.9925,0,0,2
2018-09-18,Denver,39.7392,-104.9902,0,0,1
2018-09-18,Dortmund,51.5136,7.4653,0,0,1
2018-09-18,Dublin,53.3498,-6.2603,0,0,1
2018-09-18,Dumbarton,55.9453,-4.5646,0,0,1
2018-09-18,Dumfries,55.0709,-3.6051,0,0,2
2018-09-18,Dundee,56.4620,-2.9707,0,0,1
2018-09-18,Dunfermline,56.0717,-3.4522,0,0,1
2018-09-18,Dunmurry,54.5498,-6.0072,0,0,3
2018-09-18,East Kilbride,55.7644,-4.1770,0,0,1
2018-09-18,Edinburgh,55.9533,-3.1883,0,0,20
2018-09-18,Fareham,50.8548,-1.1866,0,0,1
2018-09-18,Fontenay-sous-Bois,48.8515,2.4759,0,0,1
2018-09-18,Glasgow,55.8642,-4.2518,0,0,1
2018-09-18,Gorebridge,55.8367,-3.0461,0,0,2
2018-09-18,Gravesend,51.4419,0.3708,0,0,1
2018-09-18,Gummersbach,51.0267,7.5693,0,0,51
2018-09-18,Hamilton,55.7776,-4.0537,0,0,1
2018-09-18,Hastings,50.8543,0.5735,0,0,1
2018-09-18,Hong Kong,22.2800,114.1588,0,0,1
2018-09-18,Houston,29.7604,-95.3698,0,0,1
2018-09-18,Istanbul,41.0082,28.9784,0,0,2
2018-09-18,Johnstone,55.8373,-4.5139,0,0,1
2018-09-18,Kilmarnock,55.6147,-4.4988,0,0,2
2018-09-18,Kolkata,22.5726,88.3639,0,0,6
2018-09-18,Konigs Wusterhausen,52.2959,13.6228,0,0,1
2018-09-18,Lagos,6.5244,3.3792,0,0,2
2018-09-18,Lancaster,54.0466,-2.8007,0,0,1
2018-09-18,Leeds,53.8008,-1.5491,0,0,1
2018-09-18,Liverpool,53.4084,-2.9916,0,0,1
2018-09-18,Livingston,55.9007,-3.5181,0,0,1
2018-09-18,London,51.5074,-0.1278,0,0,1
2018-09-18,Los Angeles,34.0522,-118.2437,0,0,1
2018-09-18,Lviv,49.8397,24.0297,0,0,1
2018-09-18,Macclesfield,53.2587,-2.1193,0,0,5
2018-09-18,Malton,54.1368,-0.7979,0,0,15
2018-09-18,Medellin,6.2442,-75.5812,0,1,3
2018-09-18,Montreal,45.5017,-73.5673,0,0,2
2018-09-18,Mumbai,19.0760,72.8777,0,0,1
2018-09-18,New York,40.7128,-74.0060,0,0,4
2018-09-18,Newcastle upon Tyne,54.9783,-1.6178,0,0,1
2018-09-18,North Berwick,56.0584,-2.7196,0,0,2
2018-09-18,North Kuta,-8.6597,115.1633,0,0,1
2018-09-18,North Richland Hills,32.8343,-97.2289,0,0,3
2018-09-18,Oklahoma City,35.4676,-97.5164,0,0,5
2018-09-18,Paisley,55.8473,-4.4401,0,0,1
2018-09-18,Peterborough,52.5695,-0.2405,0,0,1
2018-09-18,Pittsburg,32.9954,-94.9658,0,0,60
2018-09-18,Portsmouth,50.8198,-1.0880,0,0,1
2018-09-18,Pune,18.5204,73.8567,0,0,1
2018-09-18,Renfrew,55.8753,-4.3915,0,0,1
2018-09-18,Rotterdam,51.9244,4.4777,0,0,3
2018-09-18,Ryde,50.7300,-1.1633,0,0,2
2018-09-18,San Pablo de las Salinas,19.6745,-99.0792,0,0,2
2018-09-18,Slough,51.5105,-0.5950,0,0,1
2018-09-18,Stirling,56.1165,-3.9369,0,0,2
2018-09-18,Stockton-on-Tees,54.5705,-1.3290,0,0,2
2018-09-18,Teresopolis,-22.4170,-42.9756,0,0,2
2018-09-18,The Royal Town of Sutton Coldfield,52.5704,-1.8240,0,0,1
2018-09-18,Thessaloniki,40.6401,22.9444,0,0,1
2018-09-18,Tunis,36.8065,10.1815,0,0,1
2018-09-18,Uddingston,55.8157,-4.0791,0,0,3
2018-09-18,Warsaw,52.2297,21.0122,0,0,1
2018-09-18,Wilmslow,53.3280,-2.2294,0,0,1
2018-09-18,Windermere,54.3807,-2.9068,0,0,1
2018-09-18,Windsor,51.4817,-0.6136,0,0,1
2018-09-18,Woking,51.3168,-0.5600,0,0,2
2018-09-18,Wolf Trap,38.9410,-77.2671,0,0,1
2018-09-18,Yerevan,40.1794,44.5408,0,0,2
2018-09-18,Zaragoza,41.6488,-0.8891,0,0,3
2018-09-19,(not set),0.0000,0.0000,0,0,1
2018-09-19,Aberdeen,57.1497,-2.0943,0,0,1
2018-09-19,Alexandria,55.9887,-4.5789,0,0,1
2018-09-19,Alloa,56.1141,-3.7919,0,0,1
2018-09-19,Amsterdam,52.3702,4.8952,0,0,1
2018-09-19,Ashford,51.1465,0.8750,0,0,74
2018-09-19,Asker Municipality,59.8218,10.4210,0,0,3
2018-09-19,Athens,37.9838,23.7275,0,0,1
2018-09-19,Atlanta,33.7490,-84.3880,0,0,1
2018-09-19,Baguio,16.4023,120.5960,0,0,1
2018-09-19,Baton Rouge,30.4515,-91.1871,0,0,1
2018-09-19,Beaverton,45.4888,-122.8013,0,0,2
2018-09-19,Bedzin,50.3256,19.1254,0,0,5
2018-09-19,Belfast,54.5973,-5.9301,0,0,1
2018-09-19,Belgrade,44.7866,20.4489,0,0,1
2018-09-19,Berlin,52.5200,13.4050,0,0,1
2018-09-19,Bletchley,52.0022,-0.7501,0,0,4
2018-09-19,Brighton,50.8225,-0.1372,0,0,1
2018-09-19,Broadstairs,51.3602,1.4320,0,0,1
2018-09-19,Bury St Edmunds,52.2429,0.7105,0,0,1
2018-09-19,Calgary,51.0486,-114.0708,0,0,1
2018-09-19,Chicago,41.8781,-87.6298,0,0,1
2018-09-19,Colchester,51.8959,0.8919,0,0,1
2018-09-19,Coleraine,55.1326,-6.6646,0,0,1
2018-09-19,Croydon,51.3762,-0.0982,0,0,1
2018-09-19,Cullman,34.1748,-86.8436,0,0,1
2018-09-19,Cumbernauld,55.9457,-3.9925,0,0,2
2018-09-19,Denver,39.7392,-104.9902,0,0,1
2018-09-19,Destrehan,29.9430,-90.3517,0,0,1
2018-09-19,Dublin,53.3498,-6.2603,0,0,2
2018-09-19,Duck,36.1696,-75.7552,0,0,1
2018-09-19,Dundee,56.4620,-2.9707,0,0,1
2018-09-19,Dunfermline,56.0717,-3.4522,0,0,1
2018-09-19,East Kilbride,55.7644,-4.1770,0,0,1
2018-09-19,Edinburgh,55.9533,-3.1883,0,0,2
2018-09-19,Fareham,50.8548,-1.1866,0,0,3
2018-09-19,Filderstadt,48.6782,9.2161,0,0,1
2018-09-19,Frome,51.2308,-2.3201,0,0,3
2018-09-19,Glasgow,55.8642,-4.2518,0,0,1
2018-09-19,Greenock,55.9565,-4.7720,0,0,1
2018-09-19,Gurgaon,28.4595,77.0266,0,0,1
2018-09-19,Halifax,53.7270,-1.8575,0,0,1
2018-09-19,Hamilton,55.7776,-4.0537,0,0,6
2018-09-19,Harrison,40.9700,-73.7176,0,0,1
2018-09-19,Independence,39.0911,-94.4155,0,0,1
2018-09-19,Kingston,50.6163,-2.0620,0,0,1
2018-09-19,Kirkcaldy,56.1168,-3.1581,0,0,1
2018-09-19,Kirkintilloch,55.9392,-4.1562,0,0,1
2018-09-19,Lee-on-the-Solent,50.8021,-1.2024,0,0,2
2018-09-19,Leeds,53.8008,-1.5491,0,0,1
2018-09-19,Linden,40.6220,-74.2446,0,0,1
2018-09-19,Lisburn,54.5162,-6.0580,0,0,1
2018-09-19,Livingston,55.9007,-3.5181,0,0,1
2018-09-19,London,51.5074,-0.1278,0,0,2
2018-09-19,Luton,51.8787,-0.4200,0,0,2
2018-09-19,Memphis,35.1495,-90.0490,0,0,1
2018-09-19,Monroe Township,40.3364,-74.4331,0,0,2
2018-09-19,Moscow,55.7558,37.6173,0,0,2
2018-09-19,Msida,35.8956,14.4869,0,0,1
2018-09-19,Musselburgh,55.9419,-3.0539,0,0,3
2018-09-19,Nairobi,-1.2921,36.8219,0,0,1
2018-09-19,Nanterre,48.8924,2.2153,0,0,3
2018-09-19,New York,40.7128,-74.0060,0,1,70
2018-09-19,Newcastle upon Tyne,54.9783,-1.6178,0,0,11
2018-09-19,Northampton,52.2405,-0.9027,0,0,1
2018-09-19,Oviedo,28.6700,-81.2081,0,0,1
2018-09-19,Paisley,55.8473,-4.4401,0,0,1
2018-09-19,Paris,48.8566,2.3522,0,0,3
2018-09-19,Perth,56.3950,-3.4308,0,0,6
2018-09-19,Plan-les-Ouates,46.1668,6.1146,0,0,2
2018-09-19,Plymouth,50.3755,-4.1427,0,0,1
2018-09-19,Raleigh,35.7796,-78.6382,0,0,1
2018-09-19,Renfrew,55.8753,-4.3915,0,0,4
2018-09-19,Rutherglen,55.8290,-4.2243,0,0,1
2018-09-19,Ryde,50.7300,-1.1633,0,0,1
2018-09-19,Sale,53.4256,-2.3237,0,0,34
2018-09-19,Santiago de Surco,-12.1416,-76.9918,0,0,1
2018-09-19,Scottsdale,33.4942,-111.9261,0,0,2
2018-09-19,Seattle,47.6062,-122.3321,0,0,2
2018-09-19,Slough,51.5105,-0.5950,0,0,3
2018-09-19,Stevenage,51.9038,-0.1966,0,0,1
2018-09-19,Stirling,56.1165,-3.9369,0,0,2
2018-09-19,Teddington,51.4268,-0.3313,0,0,1
2018-09-19,Thessaloniki,40.6401,22.9444,0,0,5
2018-09-19,Toronto,43.6532,-79.3832,0,0,1
2018-09-19,Wantage,51.5889,-1.4265,0,0,1
2018-09-19,Windsor,51.4817,-0.6136,0,0,1
2018-09-19,Worcester,52.1936,-2.2216,0,0,1
2018-09-19,Zenica,44.2034,17.9077,0,0,1
2018-09-20,(not set),0.0000,0.0000,0,0,1
2018-09-20,Aberdeen,57.1497,-2.0943,0,0,3
2018-09-20,Ahmedabad,23.0225,72.5714,0,0,1
2018-09-20,Alajuela,10.0159,-84.2142,0,0,1
2018-09-20,Albany,42.6526,-73.7562,0,0,1
2018-09-20,Alexandria,55.9887,-4.5789,0,2,146
2018-09-20,Amsterdam,52.3702,4.8952,0,0,1
2018-09-20,Ashburn,39.0438,-77.4874,0,0,2
2018-09-20,Auckland,-36.8485,174.7633,0,0,1
2018-09-20,Barcelona,41.3851,2.1734,0,0,7
2018-09-20,Bath,51.3811,-2.3590,0,0,2
2018-09-20,Beirut,33.8938,35.5018,0,0,2
2018-09-20,Belfast,54.5973,-5.9301,0,0,1
2018-09-20,Belgrade,44.7866,20.4489,0,0,1
2018-09-20,Bellshill,55.8168,-4.0265,0,0,9
2018-09-20,Bengaluru,12.9716,77.5946,0,2,66
2018-09-20,Biggar,55.6234,-3.5240,0,0,1
2018-09-20,Birmingham,52.4862,-1.8904,0,0,1
2018-09-20,Birstall,52.6763,-1.1194,0,0,1
2018-09-20,Bletchley,52.0022,-0.7501,0,0,2
2018-09-20,Bodelwyddan,53.2694,-3.4943,0,0,1
2018-09-20,Boston,42.3601,-71.0589,0,0,5
2018-09-20,Bournemouth,50.7192,-1.8808,0,0,1
2018-09-20,Brighton,50.8225,-0.1372,0,0,2
2018-09-20,Broadstairs,51.3602,1.4320,0,0,2
2018-09-20,Budapest,47.4979,19.0402,0,0,1
2018-09-20,Camberley,51.3354,-0.7429,0,0,5
2018-09-20,Cannock,52.6999,-2.0218,0,0,1
2018-09-20,Cape Town,-33.9249,18.4241,0,0,1
2018-09-20,Coatbridge,55.8622,-4.0193,0,0,1
2018-09-20,Coleraine,55.1326,-6.6646,0,0,4
2018-09-20,Copenhagen,55.6761,12.5683,0,0,1
2018-09-20,Coventry,52.4068,-1.5197,0,0,1
2018-09-20,Danville,37.6456,-84.7722,0,0,4
2018-09-20,Dubai,25.2048,55.2708,0,0,2
2018-09-20,Dundee,56.4620,-2.9707,0,0,8
2018-09-20,Dunfermline,56.0717,-3.4522,0,0,1
2018-09-20,Durham,54.7752,-1.5849,0,0,1
2018-09-20,Eagan,44.8041,-93.1669,0,0,1
2018-09-20,Edinburgh,55.9533,-3.1883,0,0,1
2018-09-20,Glasgow,55.8642,-4.2518,0,0,1
2018-09-20,Glenrothes,56.2008,-3.1599,0,0,1
2018-09-20,Greenock,55.9565,-4.7720,0,0,1
2018-09-20,Grimsby,53.5675,-0.0808,0,2,103
2018-09-20,Ha Long,20.9712,107.0448,0,0,1
2018-09-20,Halifax,53.7270,-1.8575,0,0,3
2018-09-20,Hamilton,55.7776,-4.0537,0,0,1
2018-09-20,Hitra Municipality,63.5568,8.6431,0,0,4
2018-09-20,Inverness,57.4778,-4.2247,0,0,1
2018-09-20,Inverurie,57.2835,-2.3740,0,0,1
2018-09-20,Irvine,55.6116,-4.6696,0,0,1
2018-09-20,Jakarta,-6.2088,106.8456,0,0,1
2018-09-20,Kilmarnock,55.6147,-4.4988,0,0,1
2018-09-20,Kingston upon Hull,53.7457,-0.3367,0,0,11
2018-09-20,Kirkcaldy,56.1168,-3.1581,0,0,9
2018-09-20,Livingston,55.9007,-3.5181,0,0,1
2018-09-20,London,51.5074,-0.1278,0,0,1
2018-09-20,Long Beach,33.7701,-118.1937,0,0,1
2018-09-20,Los Angeles,34.0522,-118.2437,0,0,1
2018-09-20,Magog,45.2665,-72.1480,0,0,1
2018-09-20,Mansfield,53.1472,-1.1987,0,0,37
2018-09-20,Melbourne,-37.8136,144.9631,0,0,20
2018-09-20,Motherwell,55.7832,-3.9811,0,0,1
2018-09-20,New Vernon,40.7457,-74.4970,0,0,1
2018-09-20,New York,40.7128,-74.0060,0,0,2
2018-09-20,Newcastle upon Tyne,54.9783,-1.6178,0,0,1
2018-09-20,North Salt Lake,40.8486,-111.9069,0,0,3
2018-09-20,Oshkosh,44.0247,-88.5426,0,0,1
2018-09-20,Ottawa,45.4215,-75.6972,0,0,1
2018-09-20,Paisley,55.8473,-4.4401,0,0,1
2018-09-20,Passo Fundo,-28.2623,-52.4103,0,0,1
2018-09-20,Plan-les-Ouates,46.1668,6.1146,0,0,1
2018-09-20,Portlethen,57.0617,-2.1295,0,0,1
2018-09-20,Prague,50.0755,14.4378,0,0,1
2018-09-20,Redditch,52.3090,-1.9409,0,0,4
2018-09-20,Renfrew,55.8753,-4.3915,0,0,1
2018-09-20,Rome,41.9028,12.4964,0,0,3
2018-09-20,Rotterdam,51.9244,4.4777,0,0,37
2018-09-20,Round Top,30.0652,-96.6961,0,0,1
2018-09-20,Rutherglen,55.8290,-4.2243,0,0,1
2018-09-20,Ryde,50.7300,-1.1633,0,0,1
2018-09-20,San Jose,37.3382,-121.8863,0,0,3
2018-09-20,Santa Clara,37.3541,-121.9552,0,0,44
2018-09-20,Santander,43.4623,-3.8100,0,0,2
2018-09-20,Seattle,47.6062,-122.3321,0,0,1
2018-09-20,Secunderabad,17.4399,78.4983,0,0,1
2018-09-20,Sheffield,53.3811,-1.4701,0,0,1
2018-09-20,Slough,51.5105,-0.5950,0,0,1
2018-09-20,Stirling,56.1165,-3.9369,0,0,1
2018-09-20,Stoke Gifford,51.5169,-2.5435,0,0,1
2018-09-20,Swindon,51.5558,-1.7797,0,0,1
2018-09-20,Sydney,-33.8688,151.2093,0,0,1
2018-09-20,Tallinn,59.4370,24.7536,0,0,1
2018-09-20,Thessaloniki,40.6401,22.9444,0,0,1
2018-09-20,Tulsa,36.1540,-95.9928,0,0,1
2018-09-20,Vigo,42.2406,-8.7207,0,0,1
2018-09-20,Wakefield,53.6833,-1.5059,0,0,2
2018-09-20,Walsall,52.5862,-1.9829,0,0,1
2018-09-20,Wyoming,42.9134,-85.7053,0,0,1
2018-09-20,Zurich,47.3769,8.5417,0,0,2
2018-09-21,(not set),0.0000,0.0000,0,0,1
2018-09-21,Aberdeen,57.1497,-2.0943,0,0,1
2018-09-21,Alexandria,38.8048,-77.0469,0,0,1
2018-09-21,Alhaurin de la Torre,36.6599,-4.5599,0,0,1
2018-09-21,Bedzin,50.3256,19.1254,0,0,1
2018-09-21,Beirut,33.8938,35.5018,0,0,1
2018-09-21,Berlin,52.5200,13.4050,0,0,1
2018-09-21,Big Lake,45.3331,-93.7335,0,0,1
2018-09-21,Birmingham,52.4862,-1.8904,0,0,1
2018-09-21,Bridgnorth,52.5345,-2.4245,0,0,1
2018-09-21,Brighton,50.8225,-0.1372,0,0,1
2018-09-21,Bristol,51.4545,-2.5879,0,0,1
2018-09-21,Broadstairs,51.3602,1.4320,0,0,1
2018-09-21,Bucharest,44.4268,26.1025,0,0,1
2018-09-21,Budapest,47.4979,19.0402,0,0,1
2018-09-21,Cardiff,51.4816,-3.1791,0,0,1
2018-09-21,Cardigan,52.0837,-4.6609,0,0,2
2018-09-21,Coatbridge,55.8622,-4.0193,0,0,3
2018-09-21,Coleraine,55.1326,-6.6646,0,0,109
2018-09-21,Coventry,52.4068,-1.5197,0,0,1
2018-09-21,Cramlington,55.0861,-1.5808,1,0,22
2018-09-21,Cumbernauld,55.9457,-3.9925,0,0,4
2018-09-21,Curitiba,-25.4244,-49.2654,0,0,5
2018-09-21,Denpasar,-8.6705,115.2126,0,0,2
2018-09-21,Dubai,25.2048,55.2708,0,0,2
2018-09-21,Dublin,53.3498,-6.2603,0,0,81
2018-09-21,Dundee,56.4620,-2.9707,0,0,1
2018-09-21,Dunfermline,56.0717,-3.4522,0,0,27
2018-09-21,East Kilbride,55.7644,-4.1770,0,0,1
2018-09-21,Eastham,41.8300,-69.9740,0,0,6
2018-09-21,Edinburgh,55.9533,-3.1883,0,0,35
2018-09-21,Eskdalemuir,55.2678,-3.1757,0,0,2
2018-09-21,Falkirk,56.0019,-3.7839,0,0,3
2018-09-21,Freeport,43.8570,-70.1031,0,0,2
2018-09-21,Glasgow,55.8642,-4.2518,0,0,2
2018-09-21,Greenock,55.9565,-4.7720,0,0,1
2018-09-21,Greenwood Village,39.6172,-104.9508,0,0,2
2018-09-21,Hamilton,55.7776,-4.0537,0,0,1
2018-09-21,Harrison,40.9700,-73.7176,0,0,1
2018-09-21,Inverurie,57.2835,-2.3740,0,0,2
2018-09-21,Kansas City,39.0997,-94.5786,0,0,1
2018-09-21,Keighley,53.8678,-1.9124,0,0,2
2018-09-21,Kirkintilloch,55.9392,-4.1562,0,0,3
2018-09-21,Lancaster,54.0466,-2.8007,0,0,1
2018-09-21,Leeds,53.8008,-1.5491,0,0,9
2018-09-21,Livingston,55.9007,-3.5181,2,2,82
2018-09-21,London,51.5074,-0.1278,0,0,81
2018-09-21,Los Angeles,34.0522,-118.2437,0,0,122
2018-09-21,Makati,14.5547,121.0244,0,0,1
2018-09-21,Manchester,53.4808,-2.2426,1,0,69
2018-09-21,Muju-gun,36.0068,127.6608,0,0,1
2018-09-21,Mumbai,19.0760,72.8777,0,0,2
2018-09-21,Musselburgh,55.9419,-3.0539,0,0,1
2018-09-21,New York,40.7128,-74.0060,0,0,1
2018-09-21,Newcastle upon Tyne,54.9783,-1.6178,0,0,3
2018-09-21,Paris,48.8566,2.3522,0,0,1
2018-09-21,Pullman,46.7298,-117.1817,0,0,2
2018-09-21,Redhill,51.2392,-0.1699,0,0,1
2018-09-21,Reigate,51.2373,-0.2059,0,0,2
2018-09-21,Renfrew,55.8753,-4.3915,0,0,1
2018-09-21,Rutherglen,55.8290,-4.2243,0,0,1
2018-09-21,Saint Ansgar,43.3785,-92.9204,0,0,11
2018-09-21,Seoul,37.5665,126.9780,0,0,1
2018-09-21,Sheffield,53.3811,-1.4701,0,0,1
2018-09-21,Shinjuku City,35.6938,139.7036,0,0,1
2018-09-21,Shipley,53.8359,-1.7770,0,0,3
2018-09-21,Slough,51.5105,-0.5950,0,0,1
2018-09-21,Staines-upon-Thames,51.4315,-0.5155,0,1,1
2018-09-21,Stoke-on-Trent,53.0027,-2.1794,0,0,3
2018-09-21,Swindon,51.5558,-1.7797,0,0,2
2018-09-21,Tamarac,26.2129,-80.2498,0,0,1
2018-09-21,Thessaloniki,40.6401,22.9444,0,0,5
2018-09-21,Troy,42.6064,-83.1498,0,0,4
2018-09-21,Vancouver,49.2827,-123.1207,0,0,1
2018-09-21,Warsaw,52.2297,21.0122,0,0,11
2018-09-21,Whitchurch,51.8757,-0.8450,0,0,1
2018-09-21,Widnes,53.3610,-2.7336,0,0,2
2018-09-21,Zagreb,45.8150,15.9819,0,0,1
2018-09-22,(not set),0.0000,0.0000,0,0,1
2018-09-22,Aberdeen,57.1497,-2.0943,0,0,1
2018-09-22,Alloa,56.1141,-3.7919,0,0,2
2018-09-22,Athens,37.9838,23.7275,0,0,1
2018-09-22,Bangkok,13.7563,100.5018,0,0,4
2018-09-22,Boardman,45.8399,-119.7006,0,0,1
2018-09-22,Bogota,4.7110,-74.0721,0,0,1
2018-09-22,Brighton,50.8225,-0.1372,0,0,1
2018-09-22,Bristol,51.4545,-2.5879,0,0,3
2018-09-22,Broadstairs,51.3602,1.4320,0,0,1
2018-09-22,Chennai,13.0827,80.2707,0,0,1
2018-09-22,Chepstow,51.6419,-2.6738,0,0,1
2018-09-22,Coleraine,55.1326,-6.6646,0,0,1
2018-09-22,Cumbernauld,55.9457,-3.9925,0,0,2
2018-09-22,Drohobych,49.3580,23.5123,0,0,1
2018-09-22,Dumfries,55.0709,-3.6051,0,0,1
2018-09-22,Dundee,56.4620,-2.9707,0,0,1
2018-09-22,Dunfermline,56.0717,-3.4522,0,0,1
2018-09-22,Edinburgh,55.9533,-3.1883,0,0,1
2018-09-22,Falkirk,56.0019,-3.7839,0,2,31
2018-09-22,Fremont,37.5483,-121.9886,0,0,1
2018-09-22,Glasgow,39.6048,-75.7452,0,0,1
2018-09-22,Glasgow,55.8642,-4.2518,0,0,2
2018-09-22,Gloucester,51.8642,-2.2382,0,0,3
2018-09-22,Great Malvern,52.1116,-2.3261,0,0,1
2018-09-22,Hamilton,55.7776,-4.0537,0,0,2
2018-09-22,Ho Chi Minh City,10.8231,106.6297,0,0,1
2018-09-22,Istanbul,41.0082,28.9784,0,1,33
2018-09-22,Jersey City,40.7282,-74.0776,0,0,7
2018-09-22,Kabul,34.5554,69.2075,0,0,1
2018-09-22,Kamloops,50.6745,-120.3273,0,0,2
2018-09-22,Kolkata,22.5726,88.3639,0,0,1
2018-09-22,Kuala Lumpur,3.1390,101.6869,0,0,1
2018-09-22,Leeds,53.8008,-1.5491,0,0,1
2018-09-22,Livingston,55.9007,-3.5181,0,0,1
2018-09-22,London,51.5074,-0.1278,0,0,1
2018-09-22,Los Angeles,34.0522,-118.2437,0,0,1
2018-09-22,Luton,51.8787,-0.4200,0,0,10
2018-09-22,Manchester,53.4808,-2.2426,0,0,2
2018-09-22,Missoula,46.8721,-113.9940,0,0,1
2018-09-22,Nantwich,53.0672,-2.5241,0,0,1
2018-09-22,Oslo Municipality,59.9139,10.7521,0,0,1
2018-09-22,Paisley,55.8473,-4.4401,0,0,2
2018-09-22,Perth,56.3950,-3.4308,0,0,2
2018-09-22,Prague,50.0755,14.4378,0,0,1
2018-09-22,Reigate,51.2373,-0.2059,0,0,1
2018-09-22,Sao Paulo,-23.5505,-46.6333,0,0,2
2018-09-22,Shrewsbury,52.7073,-2.7553,0,0,1
2018-09-22,Slough,51.5105,-0.5950,0,0,2
2018-09-22,Stroud,51.7457,-2.2178,1,1,98
2018-09-22,Tallinn,59.4370,24.7536,0,0,1
2018-09-22,The Hague,52.0705,4.3007,0,0,4
2018-09-22,Valletta,35.8989,14.5146,0,0,1
2018-09-22,Vienna,48.2082,16.3738,0,0,2
2018-09-22,Vilnius,54.6872,25.2797,0,0,1
2018-09-22,Worcester,42.2626,-71.8023,0,0,1
2018-09-22,Yangon,16.8661,96.1951,0,0,1
2018-09-23,(not set),0.0000,0.0000,0,0,1
2018-09-23,Aberdeen,57.1497,-2.0943,0,0,1
2018-09-23,Alexandria,55.9887,-4.5789,0,0,1
2018-09-23,Alloa,56.1141,-3.7919,0,0,60
2018-09-23,Athens,37.9838,23.7275,0,0,1
2018-09-23,Auckland,-36.8485,174.7633,0,0,3
2018-09-23,Bacolod,10.6840,122.9563,0,0,1
2018-09-23,Bad Hofgastein,47.1726,13.0987,0,0,6
2018-09-23,Bellshill,55.8168,-4.0265,0,0,17
2018-09-23,Bengaluru,12.9716,77.5946,0,0,1
2018-09-23,Berlin,52.5200,13.4050,0,0,6
2018-09-23,Besancon,47.2378,6.0241,0,0,2
2018-09-23,Biggar,55.6234,-3.5240,0,0,2
2018-09-23,Bishop's Stortford,51.8680,0.1606,0,0,1
2018-09-23,Brierley Hill,52.4822,-2.1203,0,0,1
2018-09-23,Brighton,50.8225,-0.1372,0,0,1
2018-09-23,Caen,49.1829,-0.3707,0,2,81
2018-09-23,Carlisle,54.8925,-2.9329,0,0,1
2018-09-23,Chicago,41.8781,-87.6298,0,0,5
2018-09-23,Cramlington,55.0861,-1.5808,0,0,4
2018-09-23,Dubai,25.2048,55.2708,0,0,1
2018-09-23,Dubendorf,47.3971,8.6180,0,0,1
2018-09-23,Dundee,56.4620,-2.9707,0,0,4
2018-09-23,Dunfermline,56.0717,-3.4522,0,0,2
2018-09-23,Edinburgh,55.9533,-3.1883,0,1,6
2018-09-23,Glasgow,55.8642,-4.2518,0,0,1
2018-09-23,Glenrothes,56.2008,-3.1599,0,0,1
2018-09-23,Hamilton,55.7776,-4.0537,0,0,1
2018-09-23,Harrison,40.9700,-73.7176,0,0,1
2018-09-23,High Wycombe,51.6286,-0.7482,0,0,2
2018-09-23,Inverurie,57.2835,-2.3740,0,0,2
2018-09-23,Irvine,55.6116,-4.6696,0,0,1
2018-09-23,Lancaster,54.0466,-2.8007,0,0,3
2018-09-23,Leeds,53.8008,-1.5491,0,0,1
2018-09-23,Livingston,55.9007,-3.5181,0,0,1
2018-09-23,London,51.5074,-0.1278,0,0,2
2018-09-23,Louisville,38.2527,-85.7585,0,0,1
2018-09-23,Lund,55.7047,13.1910,0,0,1
2018-09-23,Malton,54.1368,-0.7979,0,0,4
2018-09-23,Mansfield,32.5632,-97.1417,0,0,1
2018-09-23,Melbourne,-37.8136,144.9631,0,0,5
2018-09-23,Middlesbrough,54.5742,-1.2350,0,0,1
2018-09-23,Motherwell,55.7832,-3.9811,0,0,3
2018-09-23,Nairobi,-1.2921,36.8219,0,0,1
2018-09-23,Nantwich,53.0672,-2.5241,0,0,1
2018-09-23,New York,40.7128,-74.0060,0,0,2
2018-09-23,Newcastle upon Tyne,54.9783,-1.6178,0,0,1
2018-09-23,Newton Abbot,50.5289,-3.6084,0,0,1
2018-09-23,Nottingham,52.9548,-1.1581,0,0,1
2018-09-23,Paisley,55.8473,-4.4401,0,0,1
2018-09-23,Patna,25.5941,85.1376,0,0,1
2018-09-23,Phnom Penh,11.5564,104.9282,0,0,1
2018-09-23,Portsmouth,50.8198,-1.0880,0,0,2
2018-09-23,Rio de Janeiro,-22.9112,-43.4452,0,0,1
2018-09-23,Riyadh,24.7136,46.6753,0,0,4
2018-09-23,Singapore,1.3554,103.8677,0,0,1
2018-09-23,Slough,51.5105,-0.5950,0,0,1
2018-09-23,St Albans,51.7527,-0.3394,0,0,2
2018-09-23,Stirling,56.1165,-3.9369,0,0,1
2018-09-23,Sunderland,54.9069,-1.3838,0,0,1
2018-09-23,Taunton,51.0153,-3.1068,0,0,1
2018-09-23,Toronto,43.6532,-79.3832,0,0,4
2018-09-23,West Lafayette,40.4259,-86.9081,0,0,2
2018-09-24,(not set),0.0000,0.0000,0,0,1
2018-09-24,Aberdeen,57.1497,-2.0943,0,0,1
2018-09-24,Almere,52.3508,5.2647,0,0,1
2018-09-24,Arklow,52.7977,-6.1599,0,0,1
2018-09-24,Bacolod,10.6840,122.9563,0,0,5
2018-09-24,Barrhead,55.7967,-4.3977,0,0,1
2018-09-24,Berkhamsted,51.7598,-0.5679,0,0,1
2018-09-24,Birchwood,53.2139,-0.5990,0,0,1
2018-09-24,Birmingham,33.5207,-86.8025,0,0,23
2018-09-24,Boise,43.6150,-116.2023,0,0,8
2018-09-24,Brasilia,-15.8267,-47.9218,0,0,1
2018-09-24,Brecon,51.9489,-3.3915,0,0,1
2018-09-24,Brighton,50.8225,-0.1372,0,0,3
2018-09-24,Bristol,51.4545,-2.5879,0,0,1
2018-09-24,Broadstairs,51.3602,1.4320,0,0,1
2018-09-24,Budapest,47.4979,19.0402,0,0,1
2018-09-24,Cambridge,52.2053,0.1218,0,1,3
2018-09-24,Clydebank,55.9001,-4.4048,0,0,2
2018-09-24,Coatbridge,55.8622,-4.0193,0,0,1
2018-09-24,Copenhagen,55.6761,12.5683,0,0,2
2018-09-24,Coquitlam,49.2838,-122.7932,0,0,1
2018-09-24,Dallas,32.7767,-96.7970,0,0,2
2018-09-24,Dubai,25.2048,55.2708,0,0,1
2018-09-24,Dublin,53.3498,-6.2603,0,0,1
2018-09-24,Dumbarton,55.9453,-4.5646,0,0,1
2018-09-24,Dumfries,55.0709,-3.6051,0,0,1
2018-09-24,Dundee,56.4620,-2.9707,0,0,1
2018-09-24,Dunfermline,56.0717,-3.4522,0,0,1
2018-09-24,Durham,54.7752,-1.5849,0,0,1
2018-09-24,East Kilbride,55.7644,-4.1770,0,0,2
2018-09-24,Edinburgh,55.9533,-3.1883,0,0,1
2018-09-24,Falkirk,56.0019,-3.7839,0,0,6
2018-09-24,Falun,60.6065,15.6355,0,0,6
2018-09-24,Glasgow,55.8642,-4.2518,0,0,1
2018-09-24,Gothenburg,57.7089,11.9746,0,0,1
2018-09-24,Hamilton,55.7776,-4.0537,0,0,4
2018-09-24,Hamilton Township,40.2115,-74.6797,0,0,1
2018-09-24,Harrison,40.9700,-73.7176,0,0,1
2018-09-24,Hastings,50.8543,0.5735,0,0,1
2018-09-24,Hatfield,51.7634,-0.2231,0,0,1
2018-09-24,Herndon,38.9696,-77.3861,0,0,1
2018-09-24,Huddersfield,53.6458,-1.7850,0,0,96
2018-09-24,Istanbul,41.0082,28.9784,0,0,1
2018-09-24,Kilmarnock,55.6147,-4.4988,0,0,1
2018-09-24,Kingston,18.0179,-76.8099,0,0,1
2018-09-24,Kirkintilloch,55.9392,-4.1562,0,0,1
2018-09-24,Kuala Lumpur,3.1390,101.6869,0,0,1
2018-09-24,Larkhall,55.7377,-3.9717,0,0,11
2018-09-24,Leeds,53.8008,-1.5491,0,0,3
2018-09-24,Lichfield,52.6816,-1.8317,0,0,1
2018-09-24,Livingston,55.9007,-3.5181,0,0,1
2018-09-24,London,51.5074,-0.1278,0,0,1
2018-09-24,Loughborough,52.7721,-1.2062,0,0,1
2018-09-24,Louisville,38.2527,-85.7585,0,0,1
2018-09-24,Lund,55.7047,13.1910,0,0,2
2018-09-24,Madrid,40.4168,-3.7038,0,0,1
2018-09-24,Makati,14.5547,121.0244,0,0,1
2018-09-24,Malton,54.1368,-0.7979,0,0,1
2018-09-24,Milton Keynes,52.0406,-0.7594,0,0,1
2018-09-24,Mineola,40.7493,-73.6407,0,1,33
2018-09-24,Moncton,46.0878,-64.7782,0,0,1
2018-09-24,New Cairo City,30.0074,31.4913,0,0,3
2018-09-24,New Delhi,28.6139,77.2090,0,0,4
2018-09-24,New York,40.7128,-74.0060,0,0,1
2018-09-24,Newcastle upon Tyne,54.9783,-1.6178,0,0,1
2018-09-24,Nieuwegein,52.0248,5.0918,0,0,2
2018-09-24,Norwich,52.6309,1.2974,0,0,1
2018-09-24,Nottingham,52.9548,-1.1581,0,0,1
2018-09-24,Oldham,53.5409,-2.1114,0,0,1
2018-09-24,Oslo Municipality,59.9139,10.7521,0,0,1
2018-09-24,Paisley,55.8473,-4.4401,0,0,1
2018-09-24,Paris,48.8566,2.3522,0,0,1
2018-09-24,Penrith,54.6641,-2.7527,0,0,1
2018-09-24,Perth,56.3950,-3.4308,0,0,1
2018-09-24,Piscataway,40.5549,-74.4643,0,0,1
2018-09-24,Renfrew,55.8753,-4.3915,0,0,1
2018-09-24,Roodepoort,-26.1201,27.9015,0,0,1
2018-09-24,Rutherglen,55.8290,-4.2243,0,0,2
2018-09-24,Ryde,50.7300,-1.1633,0,0,1
2018-09-24,San Diego,32.7157,-117.1611,0,0,1
2018-09-24,Sao Bernardo do Campo,-23.8253,-46.5548,0,0,1
2018-09-24,Seattle,47.6062,-122.3321,0,0,1
2018-09-24,Sheffield,53.3811,-1.4701,0,0,1
2018-09-24,Singapore,1.3554,103.8677,0,0,1
2018-09-24,Sitka,57.0531,-135.3300,0,0,1
2018-09-24,Slough,51.5105,-0.5950,0,0,1
2018-09-24,Sollentuna,59.4391,17.9415,0,0,7
2018-09-24,St Helens,53.4563,-2.7371,0,0,1
2018-09-24,Stirling,56.1165,-3.9369,0,0,1
2018-09-24,Stuttgart,48.7758,9.1829,0,0,2
2018-09-24,Sydney,-33.8688,151.2093,0,0,1
2018-09-24,The Royal Town of Sutton Coldfield,52.5704,-1.8240,0,0,1
2018-09-24,Thessaloniki,40.6401,22.9444,0,0,1
2018-09-24,Trondheim Municipality,63.4210,10.3216,0,0,1
2018-09-24,Troy,42.6064,-83.1498,0,0,1
2018-09-24,Uig,57.5841,-6.3573,0,0,1
2018-09-24,Wakefield,53.6833,-1.5059,0,0,1
2018-09-24,Washington,38.9072,-77.0369,0,1,1
2018-09-24,Wellington,-41.2865,174.7762,1,0,3
2018-09-24,West Kirby,53.3724,-3.1843,0,0,2
2018-09-24,Wichita Falls,33.9137,-98.4934,0,0,6
2018-09-24,Windermere,54.3807,-2.9068,0,0,1
2018-09-24,Worksop,53.3093,-1.1227,0,0,1
2018-09-24,York,53.9600,-1.0873,0,0,1
2018-09-24,Zaporizhzhia,47.8388,35.1396,0,0,1
2018-09-25,(not set),0.0000,0.0000,0,0,2
2018-09-25,Aberdeen,57.1497,-2.0943,0,0,1
2018-09-25,Alexandria,55.9887,-4.5789,0,0,1
2018-09-25,Amsterdam,52.3702,4.8952,0,0,1
2018-09-25,Ankara,39.9334,32.8597,0,0,1
2018-09-25,Annandale,38.8304,-77.1964,0,0,1
2018-09-25,Antananarivo,-18.8792,47.5079,0,0,1
2018-09-25,Athens,37.9838,23.7275,0,0,1
2018-09-25,Ayr,55.4586,-4.6292,0,0,2
2018-09-25,Bangor,53.2274,-4.1293,0,0,45
2018-09-25,Bedzin,50.3256,19.1254,0,0,4
2018-09-25,Belfast,54.5973,-5.9301,0,0,4
2018-09-25,Bhubaneswar,20.2961,85.8245,0,0,1
2018-09-25,Biggar,55.6234,-3.5240,0,0,1
2018-09-25,Birmingham,52.4862,-1.8904,0,0,1
2018-09-25,Bolton,53.5769,-2.4282,0,0,1
2018-09-25,Brentford,51.4861,-0.3101,0,0,1
2018-09-25,Brighton,50.8225,-0.1372,0,0,2
2018-09-25,Brisbane,-27.4698,153.0251,0,0,1
2018-09-25,Bristol,51.4545,-2.5879,0,0,1
2018-09-25,Broadstairs,51.3602,1.4320,0,0,1
2018-09-25,Broomfield,39.9205,-105.0866,0,0,2
2018-09-25,Brussels,50.8503,4.3517,0,0,1
2018-09-25,Burgess Hill,50.9545,-0.1287,0,0,1
2018-09-25,Cape Town,-33.9249,18.4241,0,0,2
2018-09-25,Chandigarh,30.7333,76.7794,0,0,1
2018-09-25,Chelmsford,51.7356,0.4685,0,0,1
2018-09-25,Chipping Norton,51.9435,-1.5422,0,0,1
2018-09-25,Clydebank,55.9001,-4.4048,0,0,1
2018-09-25,Croydon,51.3762,-0.0982,0,0,8
2018-09-25,Cumbernauld,55.9457,-3.9925,0,0,1
2018-09-25,Darlington,54.5236,-1.5595,0,0,4
2018-09-25,Dresden,51.0504,13.7373,0,0,1
2018-09-25,Dublin,53.3498,-6.2603,0,0,71
2018-09-25,Dundee,56.4620,-2.9707,0,0,1
2018-09-25,Dunfermline,56.0717,-3.4522,0,0,1
2018-09-25,East Kilbride,55.7644,-4.1770,0,0,7
2018-09-25,Edinburgh,55.9533,-3.1883,0,0,1
2018-09-25,Falkirk,56.0019,-3.7839,0,0,10
2018-09-25,Fort Smith,35.3859,-94.3985,0,0,2
2018-09-25,Glasgow,55.8642,-4.2518,0,0,86
2018-09-25,Great Malvern,52.1116,-2.3261,0,0,1
2018-09-25,Guildford,51.2362,-0.5704,0,0,1
2018-09-25,Halifax,53.7270,-1.8575,0,0,1
2018-09-25,Hamilton,55.7776,-4.0537,0,0,1
2018-09-25,Hanau,50.1264,8.9283,0,0,1
2018-09-25,Houston,29.7604,-95.3698,0,0,2
2018-09-25,Ibiza,38.9067,1.4206,0,0,16
2018-09-25,Irvine,55.6116,-4.6696,0,0,2
2018-09-25,Jakarta,-6.2088,106.8456,0,1,2
2018-09-25,Kilmarnock,55.6147,-4.4988,0,0,3
2018-09-25,Kilwinning,55.6559,-4.7031,0,1,6
2018-09-25,Kirkcaldy,56.1168,-3.1581,0,0,1
2018-09-25,Kuala Lumpur,3.1390,101.6869,0,0,1
2018-09-25,Leeds,53.8008,-1.5491,0,0,3
2018-09-25,Liverpool,53.4084,-2.9916,0,0,1
2018-09-25,Livingston,55.9007,-3.5181,0,0,1
2018-09-25,Llandrindod Wells,52.2417,-3.3777,0,0,1
2018-09-25,London,51.5074,-0.1278,0,0,3
2018-09-25,Londonderry,54.9966,-7.3086,0,0,1
2018-09-25,Los Angeles,34.0522,-118.2437,0,0,3
2018-09-25,Maidenhead,51.5224,-0.7219,0,0,1
2018-09-25,Malaga,36.7213,-4.4213,1,0,68
2018-09-25,Manchester,53.4808,-2.2426,0,0,4
2018-09-25,Mashhad,36.2901,59.5969,0,0,3
2018-09-25,Mellingen,47.4180,8.2727,0,0,2
2018-09-25,Middlesbrough,54.5742,-1.2350,0,0,1
2018-09-25,Motherwell,55.7832,-3.9811,0,0,1
2018-09-25,Mumbai,19.0760,72.8777,0,0,22
2018-09-25,Newcastle upon Tyne,54.9783,-1.6178,0,0,1
2018-09-25,Normal,40.5142,-88.9906,0,0,1
2018-09-25,Ottawa,45.4215,-75.6972,0,0,1
2018-09-25,Oxford,51.7520,-1.2577,0,0,3
2018-09-25,Paisley,55.8473,-4.4401,0,0,2
2018-09-25,Paris,48.8566,2.3522,0,0,1
2018-09-25,Perth,-31.9505,115.8605,0,0,1
2018-09-25,Perth,56.3950,-3.4308,0,0,1
2018-09-25,Pietermaritzburg,-29.6006,30.3794,0,0,1
2018-09-25,Plympton,50.3896,-4.0593,0,0,1
2018-09-25,Portland,45.5122,-122.6587,0,0,1
2018-09-25,Preston,53.7632,-2.7031,0,0,1
2018-09-25,Reading,51.4543,-0.9781,0,0,1
2018-09-25,Reigate,51.2373,-0.2059,0,0,1
2018-09-25,Renfrew,55.8753,-4.3915,0,0,3
2018-09-25,Reykjavik,64.1265,-21.8174,0,0,1
2018-09-25,Rotterdam,51.9244,4.4777,0,0,1
2018-09-25,Rugby,52.3709,-1.2650,0,0,1
2018-09-25,Rutherglen,55.8290,-4.2243,0,0,1
2018-09-25,San Jose,9.9281,-84.0907,0,0,1
2018-09-25,Seoul,37.5665,126.9780,0,0,2
2018-09-25,Sheffield,53.3811,-1.4701,0,0,2
2018-09-25,St Andrews,56.3398,-2.7967,0,0,1
2018-09-25,Stevenage,51.9038,-0.1966,0,0,2
2018-09-25,Stirling,56.1165,-3.9369,0,0,1
2018-09-25,Sydney,-33.8688,151.2093,0,0,1
2018-09-25,The Royal Town of Sutton Coldfield,52.5704,-1.8240,0,0,1
2018-09-25,Thessaloniki,40.6401,22.9444,0,0,6
2018-09-25,Tiptree,51.8129,0.7467,0,0,1
2018-09-25,Union Park,28.5703,-81.2354,0,0,1
2018-09-25,Vancouver,49.2827,-123.1207,0,0,1
2018-09-25,Varna,43.2141,27.9147,0,0,1
2018-09-25,Visakhapatnam,17.6868,83.2185,0,0,2
2018-09-25,Warsaw,52.2297,21.0122,0,0,2
2018-09-25,Washington,40.7036,-89.4073,0,0,3
2018-09-25,Wedgefield,28.4878,-81.0773,0,0,1
2018-09-25,West Lafayette,40.4259,-86.9081,0,0,2
2018-09-25,Whitestown,39.9973,-86.3458,0,0,3
2018-09-25,York,53.9600,-1.0873,0,0,1
2018-09-25,Zaporizhzhia,47.8388,35.1396,0,0,68
2018-09-26,(not set),0.0000,0.0000,0,0,2
2018-09-26,Aberdeen,57.1497,-2.0943,0,1,33
2018-09-26,Amsterdam,52.3702,4.8952,0,0,1
2018-09-26,Atlanta,33.7490,-84.3880,0,0,1
2018-09-26,Auckland,-36.8485,174.7633,0,0,1
2018-09-26,Barrhead,55.7967,-4.3977,0,0,1
2018-09-26,Basildon,51.5761,0.4887,0,0,1
2018-09-26,Birmingham,52.4862,-1.8904,0,0,1
2018-09-26,Boardman,45.8399,-119.7006,0,0,1
2018-09-26,Bovolone,45.2577,11.1206,0,0,2
2018-09-26,Brasilia,-15.8267,-47.9218,0,0,1
2018-09-26,Brighton,50.8225,-0.1372,0,0,1
2018-09-26,Bristol,51.4545,-2.5879,0,0,65
2018-09-26,Calgary,51.0486,-114.0708,0,0,1
2018-09-26,Camberley,51.3354,-0.7429,0,0,1
2018-09-26,Cardiff,51.4816,-3.1791,0,0,1
2018-09-26,Carrickfergus,54.7262,-5.8101,0,0,1
2018-09-26,Charlotte,35.2271,-80.8431,0,0,1
2018-09-26,Clydebank,55.9001,-4.4048,0,0,4
2018-09-26,Coatbridge,55.8622,-4.0193,0,0,1
2018-09-26,Coleraine,55.1326,-6.6646,0,0,1
2018-09-26,Croydon,51.3762,-0.0982,0,0,1
2018-09-26,Dorchester,50.7112,-2.4412,0,0,1
2018-09-26,Dresden,51.0504,13.7373,0,0,1
2018-09-26,Dublin,53.3498,-6.2603,0,0,9
2018-09-26,Dubrovnik,42.6507,18.0944,0,0,2
2018-09-26,Dumbarton,55.9453,-4.5646,0,0,2
2018-09-26,Dundee,56.4620,-2.9707,0,0,1
2018-09-26,Dunfermline,56.0717,-3.4522,0,0,16
2018-09-26,East Kilbride,55.7644,-4.1770,0,0,1
2018-09-26,Edinburgh,55.9533,-3.1883,0,0,2
2018-09-26,Frankfurt,50.1109,8.6821,0,0,1
2018-09-26,Glasgow,55.8642,-4.2518,0,0,1
2018-09-26,Glenrothes,56.2008,-3.1599,0,0,2
2018-09-26,Grafton,43.3197,-87.9534,0,0,1
2018-09-26,Gravesend,51.4419,0.3708,0,0,4
2018-09-26,Hamilton,55.7776,-4.0537,0,0,1
2018-09-26,Harrison,40.9700,-73.7176,0,0,1
2018-09-26,Hastings,50.8543,0.5735,0,0,1
2018-09-26,Horsham,51.0629,-0.3259,0,0,3
2018-09-26,Huddersfield,53.6458,-1.7850,0,0,2
2018-09-26,Hyderabad,17.3850,78.4867,0,0,1
2018-09-26,Kilbride,56.3755,-5.4727,0,0,1
2018-09-26,Kilmarnock,55.6147,-4.4988,0,0,4
2018-09-26,Kirkintilloch,55.9392,-4.1562,0,0,3
2018-09-26,Kitchener,43.4516,-80.4925,1,0,63
2018-09-26,Lagos,6.5244,3.3792,0,0,2
2018-09-26,Leeds,53.8008,-1.5491,0,0,1
2018-09-26,Liverpool,53.4084,-2.9916,0,0,1
2018-09-26,Livingston,55.9007,-3.5181,0,0,1
2018-09-26,London,51.5074,-0.1278,0,0,2
2018-09-26,Maidenhead,51.5224,-0.7219,0,0,2
2018-09-26,Manchester,53.4808,-2.2426,0,0,1
2018-09-26,Middlesbrough,54.5742,-1.2350,0,0,1
2018-09-26,Milton Keynes,52.0406,-0.7594,0,0,1
2018-09-26,Motherwell,55.7832,-3.9811,0,0,2
2018-09-26,Musselburgh,55.9419,-3.0539,0,0,13
2018-09-26,Nashville,36.1627,-86.7816,0,0,1
2018-09-26,Neilston,55.7855,-4.4249,0,0,1
2018-09-26,New Delhi,28.6139,77.2090,0,0,1
2018-09-26,New York,40.7128,-74.0060,0,0,2
2018-09-26,North Richland Hills,32.8343,-97.2289,0,0,1
2018-09-26,Nottingham,52.9548,-1.1581,0,0,1
2018-09-26,Oxford,51.7520,-1.2577,0,0,4
2018-09-26,Paisley,55.8473,-4.4401,0,0,1
2018-09-26,Palm Springs,26.6359,-80.0962,0,0,1
2018-09-26,Portlethen,57.0617,-2.1295,0,0,1
2018-09-26,Prague,50.0755,14.4378,0,0,1
2018-09-26,Puchong,3.0327,101.6188,0,0,1
2018-09-26,Pune,18.5204,73.8567,0,0,3
2018-09-26,Reigate,51.2373,-0.2059,0,0,1
2018-09-26,Renfrew,55.8753,-4.3915,0,0,12
2018-09-26,Rutherglen,55.8290,-4.2243,0,0,2
2018-09-26,Salerno,40.6824,14.7681,0,0,2
2018-09-26,San Diego,32.7157,-117.1611,0,0,1
2018-09-26,Sheffield,53.3811,-1.4701,0,0,3
2018-09-26,Singapore,1.3554,103.8677,0,0,1
2018-09-26,Slough,51.5105,-0.5950,0,0,1
2018-09-26,Sola,58.8618,5.2061,0,0,1
2018-09-26,Stirling,56.1165,-3.9369,0,0,1
2018-09-26,Stornoway,58.2094,-6.3849,0,0,1
2018-09-26,Thessaloniki,40.6401,22.9444,0,0,1
2018-09-26,Utrecht,52.0907,5.1214,0,0,1
2018-09-26,Vadodara,22.3072,73.1812,0,0,1
2018-09-26,West Lafayette,40.4259,-86.9081,0,0,1
2018-09-26,West Palm Beach,26.7153,-80.0534,0,0,2
2018-09-26,Wokingham,51.4105,-0.8339,0,0,2
2018-09-27,(not set),0.0000,0.0000,0,0,1
2018-09-27,Aberdeen,57.1497,-2.0943,0,0,1
2018-09-27,Alexandria,55.9887,-4.5789,0,0,1
2018-09-27,Barnstaple,51.0782,-4.0583,0,0,2
2018-09-27,Beijing,39.9042,116.4074,0,0,1
2018-09-27,Birmingham,52.4862,-1.8904,0,0,1
2018-09-27,Bo'ness,56.0130,-3.6035,0,0,1
2018-09-27,Brentford,51.4861,-0.3101,0,0,1
2018-09-27,Brighton,50.8225,-0.1372,0,0,1
2018-09-27,Bristol,51.4545,-2.5879,0,0,1
2018-09-27,Brno,49.1951,16.6068,0,0,1
2018-09-27,Chatsworth,-29.9270,30.8843,0,0,1
2018-09-27,Cheltenham,51.8994,-2.0783,0,0,1
2018-09-27,Cluj-Napoca,46.7712,23.6236,0,0,1
2018-09-27,Clydebank,55.9001,-4.4048,0,0,1
2018-09-27,Coatbridge,55.8622,-4.0193,0,0,1
2018-09-27,Colchester,51.8959,0.8919,0,0,1
2018-09-27,Coventry,52.4068,-1.5197,0,0,1
2018-09-27,Croydon,51.3762,-0.0982,0,0,1
2018-09-27,Cumbernauld,55.9457,-3.9925,0,0,1
2018-09-27,Dubai,25.2048,55.2708,0,0,2
2018-09-27,Dublin,53.3498,-6.2603,0,0,1
2018-09-27,Dundee,56.4620,-2.9707,0,0,2
2018-09-27,Dunfermline,56.0717,-3.4522,0,0,1
2018-09-27,East Kilbride,55.7644,-4.1770,0,0,1
2018-09-27,Edinburgh,55.9533,-3.1883,0,0,1
2018-09-27,Ellesmere Port,53.2798,-2.8974,0,0,1
2018-09-27,Exeter,50.7184,-3.5339,0,0,54
2018-09-27,Falkirk,56.0019,-3.7839,0,0,1
2018-09-27,Farnham,51.2143,-0.7988,0,0,1
2018-09-27,Frankfurt,50.1109,8.6821,0,0,1
2018-09-27,Glasgow,55.8642,-4.2518,0,0,2
2018-09-27,Glenrothes,56.2008,-3.1599,1,0,1
2018-09-27,Gold Coast,-28.0167,153.4000,0,0,1
2018-09-27,Grafton,43.3197,-87.9534,0,0,1
2018-09-27,Greenock,55.9565,-4.7720,0,0,1
2018-09-27,Gurgaon,28.4595,77.0266,0,0,1
2018-09-27,Hamilton,55.7776,-4.0537,0,0,1
2018-09-27,Houston,29.7604,-95.3698,0,0,1
2018-09-27,Ibiza,38.9067,1.4206,0,0,8
2018-09-27,Inverness,57.4778,-4.2247,0,0,1
2018-09-27,Inverurie,57.2835,-2.3740,0,0,1
2018-09-27,Istanbul,41.0082,28.9784,0,0,41
2018-09-27,Izmir,38.4237,27.1428,0,0,1
2018-09-27,Johnstone,55.8373,-4.5139,0,0,1
2018-09-27,Jyvaskyla sub-region,62.2426,25.7474,0,0,1
2018-09-27,Kuala Lumpur,3.1390,101.6869,0,0,5
2018-09-27,Kyle,29.9891,-97.8772,0,0,2
2018-09-27,Lagos,6.5244,3.3792,0,0,2
2018-09-27,Leeds,53.8008,-1.5491,0,0,2
2018-09-27,Livingston,55.9007,-3.5181,0,0,8
2018-09-27,Lochwinnoch,55.7958,-4.6302,0,0,1
2018-09-27,London,51.5074,-0.1278,0,0,1
2018-09-27,Manchester,53.4808,-2.2426,0,0,1
2018-09-27,Marietta,33.9526,-84.5499,0,0,1
2018-09-27,Medan,3.5952,98.6722,0,0,1
2018-09-27,Mohlin,47.5591,7.8443,0,0,1
2018-09-27,Musselburgh,55.9419,-3.0539,0,0,5
2018-09-27,New Delhi,28.6139,77.2090,0,0,1
2018-09-27,Newark,40.7357,-74.1724,0,0,1
2018-09-27,Newcastle upon Tyne,54.9783,-1.6178,0,0,1
2018-09-27,Noida,28.5355,77.3910,0,0,2
2018-09-27,North Shields,55.0108,-1.4491,0,0,4
2018-09-27,Northampton,52.2405,-0.9027,0,0,1
2018-09-27,Norwich,52.6309,1.2974,0,0,1
2018-09-27,Paisley,55.8473,-4.4401,0,0,1
2018-09-27,Patna,25.5941,85.1376,0,0,2
2018-09-27,Peoria,40.6936,-89.5890,0,0,1
2018-09-27,Perth,56.3950,-3.4308,0,1,10
2018-09-27,Randburg,-26.1438,27.9952,0,0,1
2018-09-27,Reigate,51.2373,-0.2059,0,0,24
2018-09-27,Rosyth,56.0365,-3.4231,0,0,1
2018-09-27,Rotherham,53.4326,-1.3635,0,0,2
2018-09-27,Rotterdam,51.9244,4.4777,0,0,1
2018-09-27,Rutherglen,55.8290,-4.2243,0,0,2
2018-09-27,Santa Clara,37.3541,-121.9552,0,0,1
2018-09-27,Seattle,47.6062,-122.3321,0,0,1
2018-09-27,Shawnee,39.0228,-94.7152,0,0,1
2018-09-27,Slough,51.5105,-0.5950,0,0,1
2018-09-27,Sofia,42.6977,23.3219,0,0,1
2018-09-27,Stirling,56.1165,-3.9369,0,0,1
2018-09-27,Stockholm,59.3293,18.0686,0,0,2
2018-09-27,Stockton-on-Tees,54.5705,-1.3290,0,0,10
2018-09-27,Stornoway,58.2094,-6.3849,0,0,1
2018-09-27,Sydney,-33.8688,151.2093,0,0,1
2018-09-27,Tadcaster,53.8836,-1.2609,0,0,1
2018-09-27,Thessaloniki,40.6401,22.9444,0,0,2
2018-09-27,Uppsala,59.8586,17.6389,0,0,1
2018-09-27,Utrecht,52.0907,5.1214,0,0,118
2018-09-27,Vancouver,49.2827,-123.1207,0,0,2
2018-09-27,Veldhoven,51.4176,5.4060,0,0,6
2018-09-27,Vilnius,54.6872,25.2797,0,0,2
2018-09-27,Whitestown,39.9973,-86.3458,0,0,2
2018-09-28,(not set),0.0000,0.0000,0,0,128
2018-09-28,Aberdeen,57.1497,-2.0943,0,0,3
2018-09-28,Albuquerque,35.0844,-106.6504,0,0,1
2018-09-28,Atlanta,33.7490,-84.3880,0,0,2
2018-09-28,Bath,51.3811,-2.3590,0,0,1
2018-09-28,Beijing,39.9042,116.4074,0,0,1
2018-09-28,Belfast,54.5973,-5.9301,0,0,6
2018-09-28,Beverley,53.8420,-0.4351,0,0,1
2018-09-28,Brighton,50.8225,-0.1372,0,1,2
2018-09-28,Bucharest,44.4268,26.1025,0,0,1
2018-09-28,Cambridge,52.2053,0.1218,0,0,1
2018-09-28,Cheseaux-sur-Lausanne,46.5855,6.6048,0,0,1
2018-09-28,Coatbridge,55.8622,-4.0193,0,0,1
2018-09-28,Cologne,50.9375,6.9603,0,0,1
2018-09-28,Cumbernauld,55.9457,-3.9925,0,0,3
2018-09-28,Darlington,54.5236,-1.5595,0,0,2
2018-09-28,Dubai,25.2048,55.2708,0,0,1
2018-09-28,Dublin,53.3498,-6.2603,0,0,1
2018-09-28,Dumbarton,55.9453,-4.5646,0,0,1
2018-09-28,Dundee,56.4620,-2.9707,0,0,34
2018-09-28,Dunfermline,56.0717,-3.4522,0,0,73
2018-09-28,Durban,-29.8587,31.0218,0,0,1
2018-09-28,Eaglesham,55.7393,-4.2700,0,0,2
2018-09-28,East Kilbride,55.7644,-4.1770,0,0,10
2018-09-28,Edinburgh,55.9533,-3.1883,0,0,2
2018-09-28,Falkirk,56.0019,-3.7839,0,0,1
2018-09-28,Glasgow,55.8642,-4.2518,0,0,7
2018-09-28,Hamilton,55.7776,-4.0537,0,0,1
2018-09-28,Harrison,40.9700,-73.7176,0,0,1
2018-09-28,Hatfield,53.5706,-0.9564,0,0,1
2018-09-28,Hilmar,37.4041,-120.8505,0,0,1
2018-09-28,Inverness,57.4778,-4.2247,0,0,2
2018-09-28,Irvine,55.6116,-4.6696,0,0,1
2018-09-28,Kirkcaldy,56.1168,-3.1581,0,0,1
2018-09-28,Kirkintilloch,55.9392,-4.1562,0,0,1
2018-09-28,Knoxville,35.9606,-83.9207,0,0,1
2018-09-28,Lagos,6.5244,3.3792,0,0,6
2018-09-28,Leeds,53.8008,-1.5491,0,0,1
2018-09-28,Lerwick,60.1530,-1.1493,0,0,1
2018-09-28,Livingston,55.9007,-3.5181,0,0,4
2018-09-28,Lochmaddy,57.6046,-7.1622,0,0,1
2018-09-28,London,51.5074,-0.1278,0,0,3
2018-09-28,Manchester,53.4808,-2.2426,0,0,1
2018-09-28,Muju-gun,36.0068,127.6608,0,0,1
2018-09-28,Musselburgh,55.9419,-3.0539,0,0,3
2018-09-28,Myrtle Beach,33.6891,-78.8867,0,0,1
2018-09-28,Nashik,19.9975,73.7898,0,0,6
2018-09-28,Paisley,55.8473,-4.4401,0,0,1
2018-09-28,Pancevo,44.8740,20.6476,0,0,1
2018-09-28,Perth,56.3950,-3.4308,0,0,1
2018-09-28,Philadelphia,39.9526,-75.1652,0,0,1
2018-09-28,Phnom Penh,11.5564,104.9282,0,0,1
2018-09-28,Reading,51.4543,-0.9781,0,0,1
2018-09-28,Renfrew,55.8753,-4.3915,0,0,1
2018-09-28,Salford,53.4875,-2.2901,0,0,1
2018-09-28,Saltburn-by-the-Sea,54.5816,-0.9751,0,0,1
2018-09-28,Sofia,42.6977,23.3219,0,0,1
2018-09-28,Sorrento,40.6263,14.3758,0,0,12
2018-09-28,Southampton,50.9097,-1.4044,0,0,1
2018-09-28,Stirling,56.1165,-3.9369,0,0,1
2018-09-28,Stornoway,58.2094,-6.3849,0,0,1
2018-09-28,Talence,44.8026,-0.5881,0,0,26
2018-09-28,Thessaloniki,40.6401,22.9444,0,0,1
2018-09-28,Toronto,43.6532,-79.3832,0,0,1
2018-09-28,Tysons,38.9187,-77.2311,0,0,4
2018-09-28,Wilmslow,53.3280,-2.2294,0,0,2
2018-09-28,Windermere,54.3807,-2.9068,0,0,3
2018-09-28,Woking,51.3168,-0.5600,0,0,5
2018-09-28,Wolverhampton,52.5870,-2.1288,0,0,1
2018-09-28,Yarmouth,41.7056,-70.2287,0,0,2
2018-09-29,(not set),0.0000,0.0000,0,0,1
2018-09-29,Aberdeen,57.1497,-2.0943,0,0,1
2018-09-29,Amsterdam,52.3702,4.8952,0,0,1
2018-09-29,Ashford,51.1465,0.8750,0,0,1
2018-09-29,Bad Hofgastein,47.1726,13.0987,0,0,1
2018-09-29,Bath,51.3811,-2.3590,0,0,1
2018-09-29,Beijing,39.9042,116.4074,0,0,1
2018-09-29,Belfast,54.5973,-5.9301,0,0,1
2018-09-29,Beverley,53.8420,-0.4351,0,0,1
2018-09-29,Birmingham,52.4862,-1.8904,0,0,1
2018-09-29,Blackpool,53.8175,-3.0357,0,0,1
2018-09-29,Brasilia,-15.8267,-47.9218,0,0,1
2018-09-29,Brentford,51.4861,-0.3101,0,0,1
2018-09-29,Brighton,50.8225,-0.1372,0,0,1
2018-09-29,Camerton,54.6667,-3.4784,0,0,4
2018-09-29,Cheltenham,51.8994,-2.0783,0,0,1
2018-09-29,Chester,53.1934,-2.8931,0,0,1
2018-09-29,Coventry,52.4068,-1.5197,0,0,1
2018-09-29,Cumbernauld,55.9457,-3.9925,0,0,2
2018-09-29,Dundee,56.4620,-2.9707,0,0,1
2018-09-29,Edinburgh,55.9533,-3.1883,0,0,1
2018-09-29,Falkirk,56.0019,-3.7839,0,0,1
2018-09-29,Farnborough,51.2869,-0.7526,0,0,1
2018-09-29,Fort William,56.8198,-5.1052,0,0,4
2018-09-29,Glasgow,55.8642,-4.2518,0,0,1
2018-09-29,Greenock,55.9565,-4.7720,0,0,1
2018-09-29,Guildford,51.2362,-0.5704,0,0,2
2018-09-29,Hamilton,55.7776,-4.0537,0,1,53
2018-09-29,Harrison,40.9700,-73.7176,0,0,2
2018-09-29,Harrogate,53.9921,-1.5418,0,0,1
2018-09-29,Hastings,50.8543,0.5735,0,1,62
2018-09-29,Inverness,57.4778,-4.2247,0,0,1
2018-09-29,Irvine,55.6116,-4.6696,0,0,6
2018-09-29,Istanbul,41.0082,28.9784,0,0,1
2018-09-29,Johnstone,55.8373,-4.5139,0,0,1
2018-09-29,Kennett Square,39.8468,-75.7116,2,2,104
2018-09-29,Kettering,52.3963,-0.7302,0,0,12
2018-09-29,Kirkintilloch,55.9392,-4.1562,0,0,9
2018-09-29,Kyiv,50.4501,30.5234,0,0,1
2018-09-29,Leeds,53.8008,-1.5491,0,0,1
2018-09-29,Lisburn,54.5162,-6.0580,0,0,1
2018-09-29,Little Falls,40.8690,-74.2082,0,0,4
2018-09-29,Liverpool,53.4084,-2.9916,0,0,1
2018-09-29,Livingston,55.9007,-3.5181,0,0,1
2018-09-29,London,51.5074,-0.1278,0,0,3
2018-09-29,Market Harborough,52.4758,-0.9215,0,0,1
2018-09-29,Middlesbrough,54.5742,-1.2350,0,0,2
2018-09-29,Newcastle-under-Lyme,53.0132,-2.2273,0,0,1
2018-09-29,North Berwick,56.0584,-2.7196,0,0,1
2018-09-29,Nottingham,52.9548,-1.1581,0,0,61
2018-09-29,Orem,40.2969,-111.6946,0,0,2
2018-09-29,Oslo Municipality,59.9139,10.7521,0,0,1
2018-09-29,Paisley,55.8473,-4.4401,0,0,2
2018-09-29,Porto,41.1579,-8.6291,0,0,1
2018-09-29,Rabat,33.9716,-6.8498,0,0,1
2018-09-29,Reigate,51.2373,-0.2059,0,0,8
2018-09-29,Rochdale,53.6097,-2.1561,0,0,1
2018-09-29,Rotterdam,51.9244,4.4777,0,0,1
2018-09-29,San Francisco,37.7749,-122.4194,0,0,2
2018-09-29,St Andrews,56.3398,-2.7967,0,0,1
2018-09-29,Stirling,56.1165,-3.9369,0,0,7
2018-09-29,Tallinn,59.4370,24.7536,0,0,1
2018-09-29,Toronto,43.6532,-79.3832,0,0,5
2018-09-29,Vadodara,22.3072,73.1812,0,0,1
2018-09-29,Watford,51.6565,-0.3903,0,0,1
2018-09-29,Wolverhampton,52.5870,-2.1288,0,0,1
2018-09-30,(not set),0.0000,0.0000,0,0,1
2018-09-30,Ayr,55.4586,-4.6292,0,0,1
2018-09-30,Bad Hofgastein,47.1726,13.0987,0,0,2
2018-09-30,Bangor,53.2274,-4.1293,0,0,1
2018-09-30,Bethesda,38.9847,-77.0947,0,0,1
2018-09-30,Birmingham,52.4862,-1.8904,0,0,1
2018-09-30,Bradford,53.7960,-1.7594,0,0,1
2018-09-30,Bratislava,48.1486,17.1077,0,0,1
2018-09-30,Brighton,50.8225,-0.1372,0,0,3
2018-09-30,Chelmsford,51.7356,0.4685,0,0,1
2018-09-30,Chester,53.1934,-2.8931,0,0,1
2018-09-30,Clydebank,55.9001,-4.4048,0,0,2
2018-09-30,Cumbernauld,55.9457,-3.9925,0,0,4
2018-09-30,Darlington,54.5236,-1.5595,0,0,1
2018-09-30,Dubai,25.2048,55.2708,0,0,1
2018-09-30,Dumbarton,55.9453,-4.5646,0,0,1
2018-09-30,Dundee,56.4620,-2.9707,0,0,93
2018-09-30,Dunfermline,56.0717,-3.4522,0,0,2
2018-09-30,East Kilbride,55.7644,-4.1770,0,0,1
2018-09-30,Edinburgh,55.9533,-3.1883,0,0,1
2018-09-30,Falkirk,56.0019,-3.7839,0,0,2
2018-09-30,Glasgow,55.8642,-4.2518,0,0,1
2018-09-30,Godalming,51.1857,-0.6128,0,0,1
2018-09-30,Hamilton,55.7776,-4.0537,0,0,2
2018-09-30,Harrison,40.9700,-73.7176,0,0,27
2018-09-30,Harrogate,53.9921,-1.5418,0,0,1
2018-09-30,Hastings,50.8543,0.5735,0,0,2
2018-09-30,Hong Kong,22.2800,114.1588,0,0,1
2018-09-30,Hudiksvall,61.7274,17.1074,0,0,50
2018-09-30,Inverness,57.4778,-4.2247,0,0,1
2018-09-30,Inverurie,57.2835,-2.3740,0,0,1
2018-09-30,Irvine,55.6116,-4.6696,0,0,4
2018-09-30,Istanbul,41.0082,28.9784,0,0,2
2018-09-30,Izmir,38.4237,27.1428,0,0,4
2018-09-30,Johannesburg,-26.2041,28.0473,0,0,4
2018-09-30,Kilbride,56.3755,-5.4727,0,0,5
2018-09-30,Lakeside,30.1300,-81.7682,0,0,1
2018-09-30,Leeds,53.8008,-1.5491,0,0,1
2018-09-30,Leiden,52.1601,4.4970,0,0,1
2018-09-30,Lisbon,38.7223,-9.1393,0,0,1
2018-09-30,Liverpool,53.4084,-2.9916,0,0,1
2018-09-30,Livingston,55.9007,-3.5181,0,0,6
2018-09-30,London,51.5074,-0.1278,0,0,1
2018-09-30,Lyon,45.7640,4.8357,0,0,1
2018-09-30,Lytham St Annes,53.7566,-3.0213,0,0,3
2018-09-30,Neath,51.6570,-3.8055,0,0,2
2018-09-30,Newcastle upon Tyne,54.9783,-1.6178,0,0,1
2018-09-30,Noida,28.5355,77.3910,0,0,1
2018-09-30,Oxford,51.7520,-1.2577,0,0,1
2018-09-30,Palermo,38.1157,13.3613,0,0,1
2018-09-30,Peristeri,38.0110,23.6887,0,0,1
2018-09-30,Phnom Penh,11.5564,104.9282,0,0,2
2018-09-30,Redditch,52.3090,-1.9409,0,0,1
2018-09-30,Reigate,51.2373,-0.2059,0,0,1
2018-09-30,Rosyth,56.0365,-3.4231,0,0,1
2018-09-30,Rutherglen,55.8290,-4.2243,2,0,98
2018-09-30,Severn,39.1371,-76.6983,0,0,1
2018-09-30,Sleaford,53.0003,-0.4096,0,0,1
2018-09-30,Slough,51.5105,-0.5950,0,0,1
2018-09-30,Southampton,50.9097,-1.4044,0,0,1
2018-09-30,Southport,53.6457,-3.0101,0,0,1
2018-09-30,St Albans,51.7527,-0.3394,0,0,1
2018-09-30,Stirling,56.1165,-3.9369,0,0,1
2018-09-30,Stockholm,59.3293,18.0686,0,0,1
2018-09-30,Sunderland,54.9069,-1.3838,0,0,1
2018-09-30,Sydney,-33.8688,151.2093,0,0,1
2018-09-30,Wolverhampton,52.5870,-2.1288,0,0,51
2018-10-01,(not set),0.0000,0.0000,0,0,8
2018-10-01,Aberdeen,57.1497,-2.0943,0,0,2
2018-10-01,Alexandria,55.9887,-4.5789,0,0,1
2018-10-01,Alloa,56.1141,-3.7919,0,0,2
2018-10-01,Ayr,55.4586,-4.6292,0,0,2
2018-10-01,Beirut,33.8938,35.5018,0,0,1
2018-10-01,Bellshill,55.8168,-4.0265,0,0,1
2018-10-01,Bengaluru,12.9716,77.5946,0,0,5
2018-10-01,Berlin,52.5200,13.4050,0,0,1
2018-10-01,Birkenhead,53.3900,-3.0230,0,0,1
2018-10-01,Birmingham,52.4862,-1.8904,0,0,2
2018-10-01,Bo'ness,56.0130,-3.6035,0,0,1
2018-10-01,Bolton,53.5769,-2.4282,0,0,4
2018-10-01,Brentford,51.4861,-0.3101,0,0,23
2018-10-01,Bristol,51.4545,-2.5879,0,0,1
2018-10-01,Camborne,50.2128,-5.2948,0,0,1
2018-10-01,Cape Town,-33.9249,18.4241,0,0,1
2018-10-01,Cardiff,51.4816,-3.1791,0,0,3
2018-10-01,Chester,53.1934,-2.8931,0,0,1
2018-10-01,Clydebank,55.9001,-4.4048,0,0,1
2018-10-01,Coatbridge,55.8622,-4.0193,0,0,1
2018-10-01,Conway,35.0887,-92.4421,0,0,1
2018-10-01,Cumbernauld,55.9457,-3.9925,0,0,1
2018-10-01,Darlington,54.5236,-1.5595,0,0,1
2018-10-01,Doncaster,53.5228,-1.1285,0,0,1
2018-10-01,Dresden,51.0504,13.7373,0,0,1
2018-10-01,Dubai,25.2048,55.2708,0,0,1
2018-10-01,Dundee,56.4620,-2.9707,0,0,1
2018-10-01,Dunfermline,56.0717,-3.4522,0,0,1
2018-10-01,Durham,54.7752,-1.5849,0,0,1
2018-10-01,Edinburgh,55.9533,-3.1883,0,0,2
2018-10-01,Egham,51.4288,-0.5479,0,0,2
2018-10-01,Falkirk,56.0019,-3.7839,0,0,1
2018-10-01,Fleetwood,53.9167,-3.0357,0,0,1
2018-10-01,Fort William,56.8198,-5.1052,0,0,1
2018-10-01,Franconia,38.7821,-77.1464,0,0,1
2018-10-01,Garland,32.9126,-96.6389,0,0,5
2018-10-01,Giza,30.0131,31.2089,0,0,1
2018-10-01,Glasgow,55.8642,-4.2518,0,0,1
2018-10-01,Glenrothes,56.2008,-3.1599,0,0,1
2018-10-01,Greenock,55.9565,-4.7720,0,0,1
2018-10-01,Hamilton,55.7776,-4.0537,0,0,2
2018-10-01,Harrison,40.9700,-73.7176,0,0,1
2018-10-01,Hyderabad,17.3850,78.4867,0,0,1
2018-10-01,Johannesburg,-26.2041,28.0473,0,0,1
2018-10-01,Kendal,54.3280,-2.7463,0,0,1
2018-10-01,Kilmarnock,55.6147,-4.4988,0,0,118
2018-10-01,Kirkcaldy,56.1168,-3.1581,0,0,1
2018-10-01,Kirkintilloch,55.9392,-4.1562,0,0,1
2018-10-01,Kuala Lumpur,3.1390,101.6869,0,0,1
2018-10-01,Leeds,53.8008,-1.5491,0,0,1
2018-10-01,Lisburn,54.5162,-6.0580,0,0,1
2018-10-01,Livingston,55.9007,-3.5181,0,0,1
2018-10-01,London,51.5074,-0.1278,0,0,1
2018-10-01,Loughborough,52.7721,-1.2062,0,0,2
2018-10-01,Manchester,53.4808,-2.2426,0,0,1
2018-10-01,Marlborough,51.4201,-1.7271,0,0,1
2018-10-01,Miami,25.7617,-80.1918,0,0,4
2018-10-01,Midrand,-25.9992,28.1263,0,0,1
2018-10-01,Musselburgh,55.9419,-3.0539,0,0,1
2018-10-01,New York,40.7128,-74.0060,0,0,1
2018-10-01,Newcastle-under-Lyme,53.0132,-2.2273,0,0,1
2018-10-01,North Bergen,40.8043,-74.0121,0,0,2
2018-10-01,Ontario,34.0633,-117.6509,0,0,1
2018-10-01,Paisley,55.8473,-4.4401,0,0,2
2018-10-01,Perth,-31.9505,115.8605,0,0,3
2018-10-01,Perth,56.3950,-3.4308,0,0,1
2018-10-01,Philadelphia,39.9526,-75.1652,0,0,1
2018-10-01,Poprad,49.0511,20.2954,0,0,70
2018-10-01,Portlethen,57.0617,-2.1295,0,0,1
2018-10-01,Portsmouth,50.8198,-1.0880,0,0,3
2018-10-01,Randburg,-26.1438,27.9952,0,0,3
2018-10-01,Reading,51.4543,-0.9781,0,0,1
2018-10-01,Reigate,51.2373,-0.2059,0,0,2
2018-10-01,Renfrew,55.8753,-4.3915,0,0,1
2018-10-01,Roy,41.1616,-112.0263,0,0,1
2018-10-01,Rutherglen,55.8290,-4.2243,0,0,1
2018-10-01,Ryde,50.7300,-1.1633,0,0,1
2018-10-01,Sale,53.4256,-2.3237,0,0,1
2018-10-01,San Francisco,37.7749,-122.4194,0,0,1
2018-10-01,Seal,51.2682,0.2389,0,0,1
2018-10-01,Silver Spring,38.9907,-77.0261,0,0,1
2018-10-01,Southampton,50.9097,-1.4044,0,0,2
2018-10-01,St Albans,51.7527,-0.3394,0,0,1
2018-10-01,St. Louis,38.6270,-90.1994,0,0,2
2018-10-01,Staines-upon-Thames,51.4315,-0.5155,0,0,1
2018-10-01,State College,40.7934,-77.8600,0,0,1
2018-10-01,Stockholm,59.3293,18.0686,0,0,1
2018-10-01,Tallinn,59.4370,24.7536,0,0,1
2018-10-01,The Hague,52.0705,4.3007,0,0,20
2018-10-01,Thessaloniki,40.6401,22.9444,0,0,1
2018-10-01,Toronto,43.6532,-79.3832,0,0,7
2018-10-01,Walsall,52.5862,-1.9829,0,0,1
2018-10-01,Warsaw,52.2297,21.0122,0,0,1
2018-10-01,Washington,38.9072,-77.0369,0,0,2
2018-10-01,White Bear Lake,45.0854,-93.0081,0,0,1
2018-10-01,Wolverhampton,52.5870,-2.1288,0,0,8
2018-10-01,Wroclaw,51.1079,17.0385,0,0,1
2018-10-01,Zhengzhou,34.7466,113.6253,0,0,1
2018-10-02,(not set),0.0000,0.0000,0,0,4
2018-10-02,Aberdeen,57.1497,-2.0943,0,0,2
2018-10-02,Alloa,56.1141,-3.7919,0,0,1
2018-10-02,Amsterdam,52.3702,4.8952,0,0,1
2018-10-02,Ashby-de-la-Zouch,52.7492,-1.4686,0,0,6
2018-10-02,Atlanta,33.7490,-84.3880,0,0,1
2018-10-02,Bangkok,13.7563,100.5018,0,0,4
2018-10-02,Bengaluru,12.9716,77.5946,0,0,1
2018-10-02,Berlin,52.5200,13.4050,0,0,1
2018-10-02,Bethany Beach,38.5396,-75.0552,0,0,1
2018-10-02,Birkenhead,53.3900,-3.0230,0,0,1
2018-10-02,Birmingham,52.4862,-1.8904,0,0,1
2018-10-02,Bournemouth,50.7192,-1.8808,0,0,5
2018-10-02,Bratislava,48.1486,17.1077,0,0,53
2018-10-02,Brighton,50.8225,-0.1372,0,0,1
2018-10-02,Bristol,51.4545,-2.5879,0,0,1
2018-10-02,Bury St Edmunds,52.2429,0.7105,0,0,1
2018-10-02,Cape Town,-33.9249,18.4241,0,0,1
2018-10-02,Cardiff,51.4816,-3.1791,0,0,3
2018-10-02,Chester,53.1934,-2.8931,0,0,1
2018-10-02,Chesterfield,53.2350,-1.4216,0,0,1
2018-10-02,Chicago,41.8781,-87.6298,0,0,1
2018-10-02,Clydebank,55.9001,-4.4048,0,0,1
2018-10-02,Copenhagen,55.6761,12.5683,0,0,44
2018-10-02,Cumbernauld,55.9457,-3.9925,0,0,1
2018-10-02,Cumming,34.2073,-84.1402,0,0,1
2018-10-02,Darlington,54.5236,-1.5595,0,0,1
2018-10-02,Derby,52.9225,-1.4746,0,0,1
2018-10-02,Dorchester,50.7112,-2.4412,0,0,6
2018-10-02,Douglas,54.1523,-4.4861,0,0,1
2018-10-02,Dresden,51.0504,13.7373,0,0,4
2018-10-02,Drogheda,53.7179,-6.3561,0,0,1
2018-10-02,Dubai,25.2048,55.2708,0,0,1
2018-10-02,Dundee,56.4620,-2.9707,0,0,1
2018-10-02,Dunfermline,56.0717,-3.4522,0,0,1
2018-10-02,Durham,54.7752,-1.5849,0,0,1
2018-10-02,East Kilbride,55.7644,-4.1770,0,0,1
2018-10-02,East Wenatchee,47.4157,-120.2931,0,0,1
2018-10-02,Eastbourne,50.7680,0.2905,0,0,3
2018-10-02,Edinburgh,55.9533,-3.1883,0,0,93
2018-10-02,Eindhoven,51.4416,5.4697,0,0,1
2018-10-02,Exeter,50.7184,-3.5339,0,0,1
2018-10-02,Falkirk,56.0019,-3.7839,0,0,1
2018-10-02,Flint,53.2482,-3.1358,0,0,1
2018-10-02,Fort William,56.8198,-5.1052,0,0,1
2018-10-02,Gateshead,54.9527,-1.6034,0,0,1
2018-10-02,Glasgow,55.8642,-4.2518,0,0,1
2018-10-02,Glenrothes,56.2008,-3.1599,0,0,25
2018-10-02,Greensboro,36.0726,-79.7920,0,0,3
2018-10-02,Hamburg,53.5511,9.9937,0,0,1
2018-10-02,Hamilton,55.7776,-4.0537,0,0,1
2018-10-02,Hong Kong,22.2800,114.1588,0,0,2
2018-10-02,Ibiza,38.9067,1.4206,0,0,1
2018-10-02,Kampala,0.3476,32.5825,0,0,1
2018-10-02,Kendal,54.3280,-2.7463,0,0,2
2018-10-02,Kyiv,50.4501,30.5234,0,0,1
2018-10-02,La Victoria,-12.0734,-77.0163,0,0,1
2018-10-02,Leeds,53.8008,-1.5491,0,0,1
2018-10-02,Lincoln,53.2307,-0.5406,0,0,1
2018-10-02,Liverpool,53.4084,-2.9916,0,0,1
2018-10-02,Livingston,55.9007,-3.5181,0,0,2
2018-10-02,London,51.5074,-0.1278,0,0,1
2018-10-02,Maidenhead,51.5224,-0.7219,0,0,3
2018-10-02,Manchester,53.4808,-2.2426,0,0,1
2018-10-02,Miami,25.7617,-80.1918,0,0,1
2018-10-02,Milton Keynes,52.0406,-0.7594,0,0,2
2018-10-02,Mobile,30.6954,-88.0399,0,0,1
2018-10-02,Montrose,56.7069,-2.4661,0,0,1
2018-10-02,Motherwell,55.7832,-3.9811,0,0,1
2018-10-02,Munich,48.1351,11.5820,0,0,1
2018-10-02,New York,40.7128,-74.0060,0,0,1
2018-10-02,Newcastle upon Tyne,54.9783,-1.6178,0,0,2
2018-10-02,North Berwick,56.0584,-2.7196,0,0,1
2018-10-02,Norwich,52.6309,1.2974,0,0,1
2018-10-02,Oakville,43.4675,-79.6877,0,0,2
2018-10-02,Ourense,42.3358,-7.8639,0,0,1
2018-10-02,Paisley,55.8473,-4.4401,0,0,29
2018-10-02,Perth,56.3950,-3.4308,0,0,1
2018-10-02,Phnom Penh,11.5564,104.9282,0,0,1
2018-10-02,Portsmouth,50.8198,-1.0880,0,0,1
2018-10-02,Renfrew,55.8753,-4.3915,0,0,1
2018-10-02,San Francisco,37.7749,-122.4194,0,0,1
2018-10-02,Sandton,-26.1076,28.0567,0,0,1
2018-10-02,Stirling,56.1165,-3.9369,0,0,1
2018-10-02,Stockholm,59.3293,18.0686,0,0,1
2018-10-02,Sydney,-33.8688,151.2093,0,0,1
2018-10-02,Tallinn,59.4370,24.7536,0,0,3
2018-10-02,Teresopolis,-22.4179,-42.9732,0,0,1
2018-10-02,Thessaloniki,40.6401,22.9444,0,0,2
2018-10-02,Toronto,43.6532,-79.3832,0,0,1
2018-10-02,Vienna,48.2082,16.3738,0,0,1
2018-10-02,Washington,38.9072,-77.0369,0,0,1
2018-10-02,Weymouth,50.6144,-2.4576,0,0,1
2018-10-02,Willerby,53.7551,-0.4375,0,0,1
2018-10-02,Wolverhampton,52.5870,-2.1288,0,0,1
2018-10-02,Wroclaw,51.1079,17.0385,0,0,2
2018-10-02,Yarmouth,41.7056,-70.2287,0,0,1
2018-10-03,(not set),0.0000,0.0000,0,0,3
2018-10-03,Aberdeen,57.1497,-2.0943,0,0,1
2018-10-03,Abingdon,51.6708,-1.2880,0,0,2
2018-10-03,Ahmedabad,23.0225,72.5714,0,0,1
2018-10-03,Basildon,51.5761,0.4887,0,0,2
2018-10-03,Bath,51.3811,-2.3590,0,0,2
2018-10-03,Blackpool,53.8175,-3.0357,0,0,1
2018-10-03,Brasilia,-15.8267,-47.9218,0,0,1
2018-10-03,Bridgwater,51.1279,-3.0036,0,0,30
2018-10-03,Bristol,51.4545,-2.5879,0,0,1
2018-10-03,Chandigarh,30.7333,76.7794,0,0,2
2018-10-03,Charlotte,35.2271,-80.8431,0,0,17
2018-10-03,Chennai,13.0827,80.2707,0,0,1
2018-10-03,Clydebank,55.9001,-4.4048,0,0,1
2018-10-03,Coventry,52.4068,-1.5197,0,0,48
2018-10-03,Croydon,51.3762,-0.0982,0,0,1
2018-10-03,Cumbernauld,55.9457,-3.9925,0,0,4
2018-10-03,Detroit,42.3314,-83.0458,0,0,2
2018-10-03,Dumbarton,55.9453,-4.5646,0,0,1
2018-10-03,Dundee,56.4620,-2.9707,0,0,2
2018-10-03,Dunfermline,56.0717,-3.4522,0,0,1
2018-10-03,Durham,54.7752,-1.5849,0,0,1
2018-10-03,East Kilbride,55.7644,-4.1770,0,0,1
2018-10-03,Edinburgh,55.9533,-3.1883,0,0,1
2018-10-03,Exeter,50.7184,-3.5339,0,0,1
2018-10-03,Falkirk,56.0019,-3.7839,0,1,6
2018-10-03,Garching,48.2489,11.6532,0,0,1
2018-10-03,Gateshead,54.9527,-1.6034,0,0,1
2018-10-03,Glasgow,55.8642,-4.2518,0,0,1
2018-10-03,Glendale,33.5387,-112.1860,0,0,1
2018-10-03,Hamilton,55.7776,-4.0537,0,0,1
2018-10-03,Harrison,40.9700,-73.7176,0,0,1
2018-10-03,Hong Kong,22.2800,114.1588,0,0,1
2018-10-03,Inverness,57.4778,-4.2247,0,0,2
2018-10-03,Inverurie,57.2835,-2.3740,0,0,1
2018-10-03,Jakarta,-6.2088,106.8456,0,0,1
2018-10-03,Johannesburg,-26.2041,28.0473,0,0,1
2018-10-03,Johnstone,55.8373,-4.5139,0,0,1
2018-10-03,Kendal,54.3280,-2.7463,0,0,1
2018-10-03,Kidlington,51.8234,-1.2905,0,0,2
2018-10-03,Kirkcaldy,56.1168,-3.1581,0,0,4
2018-10-03,Kirkintilloch,55.9392,-4.1562,0,0,2
2018-10-03,Leeds,53.8008,-1.5491,0,0,1
2018-10-03,Liverpool,53.4084,-2.9916,0,0,1
2018-10-03,Livingston,55.9007,-3.5181,0,0,1
2018-10-03,London,51.5074,-0.1278,0,0,1
2018-10-03,Manchester,53.4808,-2.2426,0,0,9
2018-10-03,Margate,51.3896,1.3868,0,0,1
2018-10-03,Middletown,40.1998,-76.7311,0,0,1
2018-10-03,Midrand,-25.9992,28.1263,0,0,2
2018-10-03,Motherwell,55.7832,-3.9811,0,0,1
2018-10-03,New York,40.7128,-74.0060,0,0,1
2018-10-03,Newcastle upon Tyne,54.9783,-1.6178,0,0,4
2018-10-03,Niles,42.0189,-87.8028,0,0,1
2018-10-03,Nottingham,52.9548,-1.1581,0,0,2
2018-10-03,Oldham,53.5409,-2.1114,0,0,1
2018-10-03,Paisley,55.8473,-4.4401,0,0,3
2018-10-03,Paris,48.8566,2.3522,0,0,1
2018-10-03,Peterborough,52.5695,-0.2405,0,0,1
2018-10-03,Reading,51.4543,-0.9781,0,0,1
2018-10-03,Saint-Eustache,45.5586,-73.8961,0,0,1
2018-10-03,San Antonio,29.4241,-98.4936,0,0,3
2018-10-03,Sheffield,53.3811,-1.4701,0,0,2
2018-10-03,Soest,52.1764,5.2992,0,0,2
2018-10-03,South Miami,25.7051,-80.2908,0,0,1
2018-10-03,St Andrews,56.3398,-2.7967,0,0,1
2018-10-03,Stamford,52.6513,-0.4802,0,0,3
2018-10-03,Stirling,56.1165,-3.9369,0,0,3
2018-10-03,Sydney,-33.8688,151.2093,0,0,1
2018-10-03,Syracuse,43.0481,-76.1474,0,0,3
2018-10-03,Tampa,27.9506,-82.4572,0,0,1
2018-10-03,Tel Aviv-Yafo,32.0853,34.7818,0,0,2
2018-10-03,Thessaloniki,40.6401,22.9444,0,0,1
2018-10-03,Toronto,43.6532,-79.3832,0,0,2
2018-10-03,Troy,42.6064,-83.1498,0,0,1
2018-10-03,Vancouver,49.2827,-123.1207,0,0,1
2018-10-03,Walton-on-Thames,51.3885,-0.4170,0,0,1
2018-10-03,Watford,51.6565,-0.3903,0,0,1
2018-10-03,Weymouth,42.2181,-70.9410,0,0,1
2018-10-03,Weymouth,50.6144,-2.4576,0,0,3
2018-10-03,Wroclaw,51.1079,17.0385,0,0,67
2018-10-04,(not set),0.0000,0.0000,0,0,2
2018-10-04,Aberdeen,57.1497,-2.0943,0,0,1
2018-10-04,Accra,5.6037,-0.1870,0,0,1
2018-10-04,Azuqueca de Henares,40.5649,-3.2681,0,0,1
2018-10-04,Banbridge,54.3487,-6.2705,0,0,1
2018-10-04,Barranquilla,10.9838,-74.8180,0,0,1
2018-10-04,Barrhead,55.7967,-4.3977,0,0,1
2018-10-04,Bath,51.3811,-2.3590,0,0,3
2018-10-04,Bedford,32.8440,-97.1431,0,0,5
2018-10-04,Bedzin,50.3256,19.1254,0,0,1
2018-10-04,Bejaia,36.7509,5.0567,0,0,1
2018-10-04,Birkenhead,53.3900,-3.0230,0,0,1
2018-10-04,Bogota,4.7110,-74.0721,0,0,1
2018-10-04,Bournemouth,50.7192,-1.8808,0,0,1
2018-10-04,Bradford,53.7960,-1.7594,0,0,3
2018-10-04,Brasilia,-15.8267,-47.9218,0,0,1
2018-10-04,Bristol,51.4545,-2.5879,0,0,1
2018-10-04,Cakovec,46.3897,16.4380,0,0,1
2018-10-04,Canterbury,51.2802,1.0789,0,0,1
2018-10-04,Carmel,39.9784,-86.1180,0,0,1
2018-10-04,Centennial,39.5807,-104.8772,0,0,1
2018-10-04,Chelmsford,51.7356,0.4685,0,0,2
2018-10-04,Chester,53.1934,-2.8931,0,0,1
2018-10-04,Chicago,41.8781,-87.6298,0,0,34
2018-10-04,Clydebank,55.9001,-4.4048,0,0,5
2018-10-04,Colchester,51.8959,0.8919,0,0,1
2018-10-04,College Park,38.9897,-76.9378,0,0,1
2018-10-04,Columbus,32.4610,-84.9877,0,0,1
2018-10-04,Coventry,52.4068,-1.5197,0,0,7
2018-10-04,Crawley,51.1091,-0.1872,0,0,1
2018-10-04,Croydon,51.3762,-0.0982,0,0,1
2018-10-04,Darlington,54.5236,-1.5595,0,0,1
2018-10-04,Dubai,25.2048,55.2708,0,0,1
2018-10-04,Dublin,53.3498,-6.2603,0,0,1
2018-10-04,Dumaguete,9.3068,123.3054,0,1,3
2018-10-04,Dundee,56.4620,-2.9707,0,0,32
2018-10-04,Dunfermline,56.0717,-3.4522,0,0,1
2018-10-04,Durham,54.7752,-1.5849,0,0,1
2018-10-04,East Berlin,39.9376,-76.9786,0,0,1
2018-10-04,East Kilbride,55.7644,-4.1770,0,0,10
2018-10-04,Edinburgh,55.9533,-3.1883,0,0,1
2018-10-04,Ennis,32.3293,-96.6253,0,0,1
2018-10-04,Ferndown,50.8074,-1.8998,0,1,2
2018-10-04,Forfar,56.6436,-2.8891,0,0,2
2018-10-04,Fort William,56.8198,-5.1052,0,0,1
2018-10-04,Glasgow,55.8642,-4.2518,0,0,1
2018-10-04,Godalming,51.1857,-0.6128,0,0,3
2018-10-04,Hamilton,55.7776,-4.0537,0,0,1
2018-10-04,Harrison,40.9700,-73.7176,0,0,1
2018-10-04,Hong Kong,22.2800,114.1588,0,0,1
2018-10-04,Ilkley,53.9255,-1.8228,0,0,2
2018-10-04,Inverness,57.4778,-4.2247,0,0,2
2018-10-04,Inverurie,57.2835,-2.3740,0,0,1
2018-10-04,Kaunas,54.8985,23.9036,0,0,1
2018-10-04,Kigali,-1.9706,30.1044,0,0,1
2018-10-04,Kirkcaldy,56.1168,-3.1581,0,0,1
2018-10-04,Lake Oswego,45.4157,-122.7160,0,0,1
2018-10-04,Larkhall,55.7377,-3.9717,0,0,2
2018-10-04,Lawrenceville,33.9562,-83.9880,0,0,2
2018-10-04,Leeds,53.8008,-1.5491,0,0,1
2018-10-04,Limerick,52.6680,-8.6305,0,0,1
2018-10-04,Lincoln,53.2307,-0.5406,0,0,5
2018-10-04,Liverpool,53.4084,-2.9916,0,0,1
2018-10-04,Livingston,55.9007,-3.5181,0,0,1
2018-10-04,London,51.5074,-0.1278,0,0,5
2018-10-04,Loughborough,52.7721,-1.2062,0,0,1
2018-10-04,Ludhiana,30.9010,75.8573,0,0,1
2018-10-04,Madison,43.0731,-89.4012,0,0,1
2018-10-04,Madrid,40.4168,-3.7038,0,0,3
2018-10-04,Manchester,53.4808,-2.2426,0,0,1
2018-10-04,Manila,14.5995,120.9842,0,0,1
2018-10-04,Medford,42.4184,-71.1062,0,0,1
2018-10-04,Melbourne,-37.8136,144.9631,0,0,1
2018-10-04,Milwaukee,43.0389,-87.9065,0,0,1
2018-10-04,Munich,48.1351,11.5820,0,0,2
2018-10-04,New York,40.7128,-74.0060,0,0,1
2018-10-04,Newcastle upon Tyne,54.9783,-1.6178,0,0,1
2018-10-04,Northampton,52.2405,-0.9027,0,0,5
2018-10-04,Nottingham,52.9548,-1.1581,0,0,6
2018-10-04,Paisley,55.8473,-4.4401,0,0,1
2018-10-04,Peterborough,52.5695,-0.2405,0,0,1
2018-10-04,Poole,50.7150,-1.9872,0,0,2
2018-10-04,Portlethen,57.0617,-2.1295,0,0,1
2018-10-04,Renfrew,55.8753,-4.3915,0,0,1
2018-10-04,Rio de Janeiro,-22.9112,-43.4452,0,0,2
2018-10-04,Roodepoort,-26.1201,27.9015,0,0,1
2018-10-04,Saint Valentin,48.1752,14.5255,0,0,3
2018-10-04,San Francisco,37.7749,-122.4194,0,0,1
2018-10-04,San Jose,37.3382,-121.8863,0,0,2
2018-10-04,Sandton,-26.1076,28.0567,0,0,1
2018-10-04,Senoia,33.3023,-84.5538,0,0,1
2018-10-04,Sofia,42.6977,23.3219,0,0,6
2018-10-04,Southampton,50.9097,-1.4044,0,0,1
2018-10-04,Stirling,56.1165,-3.9369,0,0,1
2018-10-04,Tarbert,55.8632,-5.4156,0,0,3
2018-10-04,Tel Aviv-Yafo,32.0853,34.7818,0,0,1
2018-10-04,Thessaloniki,40.6401,22.9444,0,0,1
2018-10-04,Trets,43.4469,5.6842,0,0,1
2018-10-04,Wagga Wagga,-35.1082,147.3598,0,0,1
2018-10-04,Warsaw,52.2297,21.0122,0,0,3
2018-10-04,Washington,38.9072,-77.0369,0,0,1
2018-10-04,Weymouth,50.6144,-2.4576,0,0,1
2018-10-04,Wilmslow,53.3280,-2.2294,0,0,1
2018-10-04,Woking,51.3168,-0.5600,0,0,4
2018-10-04,Wroclaw,51.1079,17.0385,0,0,1
2018-10-04,York,53.9600,-1.0873,0,0,1
2018-10-05,(not set),0.0000,0.0000,0,0,5
2018-10-05,Aberdeen,57.1497,-2.0943,0,0,1
2018-10-05,Accra,5.6037,-0.1870,0,0,1
2018-10-05,Alness,57.6960,-4.2568,0,0,1
2018-10-05,Alnwick,55.4127,-1.7063,0,0,1
2018-10-05,Amsterdam Airport Schiphol,52.2875,4.7530,0,0,6
2018-10-05,Bangor,54.6542,-5.6731,0,0,1
2018-10-05,Basingstoke,51.2665,-1.0924,0,0,2
2018-10-05,Belfast,54.5973,-5.9301,0,0,1
2018-10-05,Bengaluru,12.9716,77.5946,0,0,9
2018-10-05,Birmingham,52.4862,-1.8904,0,0,1
2018-10-05,Boardman,45.8399,-119.7006,0,0,1
2018-10-05,Bradford,53.7960,-1.7594,0,0,1
2018-10-05,Brentford,51.4861,-0.3101,0,0,2
2018-10-05,Brentwood,51.6205,0.3072,0,0,1
2018-10-05,Bristol,51.4545,-2.5879,0,0,2
2018-10-05,Budapest,47.4979,19.0402,0,0,4
2018-10-05,Cairo,30.0444,31.2357,0,0,1
2018-10-05,Chennai,13.0827,80.2707,1,0,3
2018-10-05,Clydebank,55.9001,-4.4048,0,0,1
2018-10-05,Coalville,52.7246,-1.3677,0,0,2
2018-10-05,Colombo,6.9271,79.8612,0,0,3
2018-10-05,Dallas,32.7767,-96.7970,0,0,2
2018-10-05,Dumfries,55.0709,-3.6051,0,0,4
2018-10-05,Dundee,56.4620,-2.9707,0,0,1
2018-10-05,Dunfermline,56.0717,-3.4522,0,0,1
2018-10-05,East Kilbride,55.7644,-4.1770,0,0,2
2018-10-05,Edinburgh,55.9533,-3.1883,0,0,1
2018-10-05,Fairfax,38.8462,-77.3064,0,0,1
2018-10-05,Falkirk,56.0019,-3.7839,0,0,1
2018-10-05,Florianopolis,-27.5949,-48.5482,0,0,1
2018-10-05,Galway,53.2707,-9.0568,0,0,1
2018-10-05,Glasgow,55.8642,-4.2518,0,0,1
2018-10-05,Greenock,55.9565,-4.7720,0,0,1
2018-10-05,Hamilton,55.7776,-4.0537,0,0,1
2018-10-05,Hong Kong,22.2800,114.1588,0,0,2
2018-10-05,Huddersfield,53.6458,-1.7850,0,0,1
2018-10-05,Hyderabad,17.3850,78.4867,0,0,1
2018-10-05,Inverness,57.4778,-4.2247,0,0,1
2018-10-05,Irvine,55.6116,-4.6696,0,0,1
2018-10-05,Jeddah,21.4858,39.1925,0,0,3
2018-10-05,Kirkcaldy,56.1168,-3.1581,0,0,1
2018-10-05,Kiskunhalas,46.4354,19.4834,0,0,89
2018-10-05,Kuala Lumpur,3.1390,101.6869,0,0,1
2018-10-05,Leeds,53.8008,-1.5491,0,0,1
2018-10-05,Leicester,52.6369,-1.1398,0,0,1
2018-10-05,Lisburn,54.5162,-6.0580,0,0,2
2018-10-05,Livingston,55.9007,-3.5181,0,0,60
2018-10-05,London,51.5074,-0.1278,0,0,1
2018-10-05,Londonderry,54.9966,-7.3086,0,0,1
2018-10-05,Los Angeles,34.0522,-118.2437,0,0,1
2018-10-05,Lviv,49.8397,24.0297,0,0,1
2018-10-05,Makati,14.5547,121.0244,0,0,1
2018-10-05,Manchester,53.4808,-2.2426,0,0,2
2018-10-05,Margate,51.3896,1.3868,0,0,1
2018-10-05,Marlow,51.5719,-0.7769,0,0,1
2018-10-05,Mbabane,-26.3054,31.1367,0,0,1
2018-10-05,Milton Keynes,52.0406,-0.7594,0,0,4
2018-10-05,Muju-gun,36.0068,127.6608,0,0,1
2018-10-05,Mumbai,19.0760,72.8777,0,0,1
2018-10-05,Neath,51.6570,-3.8055,0,0,2
2018-10-05,New York,40.7128,-74.0060,0,0,4
2018-10-05,Newcastle upon Tyne,54.9783,-1.6178,0,0,1
2018-10-05,Overland Park,38.9822,-94.6708,0,0,1
2018-10-05,Paisley,55.8473,-4.4401,0,0,1
2018-10-05,Perth,56.3950,-3.4308,0,0,1
2018-10-05,Piscataway,40.5549,-74.4643,0,0,1
2018-10-05,Port-of-Spain,10.6596,-61.4789,0,0,1
2018-10-05,Preston,53.7632,-2.7031,0,0,1
2018-10-05,Riga,56.9496,24.1052,0,0,4
2018-10-05,Roodepoort,-26.1201,27.9015,0,0,1
2018-10-05,Seattle,47.6062,-122.3321,0,0,1
2018-10-05,Secaucus,40.7895,-74.0565,0,0,1
2018-10-05,Seoul,37.5665,126.9780,0,0,1
2018-10-05,Slough,51.5105,-0.5950,0,0,1
2018-10-05,Southampton,50.9097,-1.4044,0,0,3
2018-10-05,Stirling,56.1165,-3.9369,0,0,1
2018-10-05,Thessaloniki,40.6401,22.9444,0,0,2
2018-10-05,Weymouth,50.6144,-2.4576,0,0,1
2018-10-05,Widnes,53.3610,-2.7336,0,0,1
2018-10-05,Windermere,54.3807,-2.9068,0,0,2
2018-10-06,(not set),0.0000,0.0000,0,0,1
2018-10-06,Aberdeen,57.1497,-2.0943,0,0,8
2018-10-06,Azuqueca de Henares,40.5649,-3.2681,0,0,1
2018-10-06,Belfast,54.5973,-5.9301,0,0,1
2018-10-06,Bradford,53.7960,-1.7594,0,0,1
2018-10-06,Brisbane,-27.4698,153.0251,0,0,1
2018-10-06,Bristol,51.4545,-2.5879,0,0,1
2018-10-06,Bucharest,44.4268,26.1025,1,0,84
2018-10-06,Cheltenham,51.8994,-2.0783,0,0,1
2018-10-06,Chicago,41.8781,-87.6298,0,0,3
2018-10-06,Clifton,40.8584,-74.1638,0,0,1
2018-10-06,Clydebank,55.9001,-4.4048,0,0,4
2018-10-06,Colle di Val d'Elsa,43.4200,11.1272,0,0,1
2018-10-06,Copenhagen,55.6761,12.5683,0,0,1
2018-10-06,Croydon,51.3762,-0.0982,0,0,1
2018-10-06,Cumbernauld,55.9457,-3.9925,0,0,2
2018-10-06,Dubai,25.2048,55.2708,0,0,1
2018-10-06,Dundee,56.4620,-2.9707,0,0,1
2018-10-06,Dunfermline,56.0717,-3.4522,0,0,2
2018-10-06,East Kilbride,55.7644,-4.1770,0,0,1
2018-10-06,Edinburgh,55.9533,-3.1883,0,0,1
2018-10-06,Fort William,56.8198,-5.1052,0,0,1
2018-10-06,Germiston,-26.2259,28.1708,0,0,1
2018-10-06,Glasgow,55.8642,-4.2518,0,0,1
2018-10-06,Godalming,51.1857,-0.6128,0,0,1
2018-10-06,Hemel Hempstead,51.7532,-0.4486,0,0,1
2018-10-06,Hong Kong,22.2800,114.1588,0,0,1
2018-10-06,Hyderabad,17.3850,78.4867,0,0,1
2018-10-06,Inverness,57.4778,-4.2247,0,0,1
2018-10-06,Kilwinning,55.6559,-4.7031,0,0,2
2018-10-06,Konstanz,47.6779,9.1732,0,0,2
2018-10-06,Leeds,53.8008,-1.5491,0,0,1
2018-10-06,Livingston,55.9007,-3.5181,0,0,1
2018-10-06,London,51.5074,-0.1278,0,0,3
2018-10-06,Londonderry,54.9966,-7.3086,0,0,1
2018-10-06,Loughborough,52.7721,-1.2062,0,0,1
2018-10-06,Madrid,40.4168,-3.7038,0,0,1
2018-10-06,Manchester,53.4808,-2.2426,0,0,1
2018-10-06,Milton,43.5183,-79.8774,0,0,1
2018-10-06,Montreal,45.5017,-73.5673,0,0,3
2018-10-06,Motherwell,55.7832,-3.9811,1,0,39
2018-10-06,Mumbai,19.0760,72.8777,0,0,1
2018-10-06,New Delhi,28.6139,77.2090,0,0,10
2018-10-06,New York,40.7128,-74.0060,0,0,1
2018-10-06,Newbury,51.4014,-1.3231,0,0,1
2018-10-06,Newcastle upon Tyne,54.9783,-1.6178,0,0,2
2018-10-06,Newry,54.1751,-6.3402,0,0,1
2018-10-06,North Berwick,56.0584,-2.7196,0,0,1
2018-10-06,Perth,56.3950,-3.4308,0,0,1
2018-10-06,Pickerington,39.8842,-82.7535,0,0,1
2018-10-06,Portree,57.4125,-6.1960,0,0,1
2018-10-06,Quezon City,14.6760,121.0437,0,0,1
2018-10-06,Rawalpindi,33.5651,73.0169,0,0,1
2018-10-06,Redditch,52.3090,-1.9409,0,0,8
2018-10-06,Renfrew,55.8753,-4.3915,0,0,1
2018-10-06,Ringsted,55.4430,11.7914,0,0,63
2018-10-06,Ripon,54.1361,-1.5238,0,0,1
2018-10-06,Seattle,47.6062,-122.3321,0,0,1
2018-10-06,Somerset,45.1244,-92.6735,0,0,3
2018-10-06,Stirling,56.1165,-3.9369,0,0,1
2018-10-06,Stockport,53.4106,-2.1575,0,0,1
2018-10-06,Sydney,-33.8688,151.2093,0,0,1
2018-10-06,Udaipur,24.5854,73.7125,0,0,1
2018-10-06,Vienna,48.2082,16.3738,0,0,1
2018-10-06,Walsall,52.5862,-1.9829,0,0,1
2018-10-06,Weymouth,50.6144,-2.4576,0,0,1
2018-10-06,Yekaterinburg,56.8389,60.6057,0,0,1
2018-10-07,(not set),0.0000,0.0000,0,0,2
2018-10-07,Barcelona,41.3851,2.1734,0,0,2
2018-10-07,Barnsley,53.5526,-1.4797,0,0,2
2018-10-07,Barrow-in-Furness,54.1090,-3.2189,0,0,1
2018-10-07,Basildon,51.5761,0.4887,0,0,1
2018-10-07,Basingstoke,51.2665,-1.0924,0,0,109
2018-10-07,Bengaluru,12.9716,77.5946,0,0,1
2018-10-07,Bilbao,43.2630,-2.9350,0,0,1
2018-10-07,Birmingham,52.4862,-1.8904,0,0,1
2018-10-07,Bolton,53.5769,-2.4282,0,0,2
2018-10-07,Bournemouth,50.7192,-1.8808,0,0,2
2018-10-07,Brighton,50.8225,-0.1372,0,0,1
2018-10-07,Carlisle,54.8925,-2.9329,0,0,1
2018-10-07,Chuo City,35.6707,139.7719,0,0,1
2018-10-07,Clydebank,55.9001,-4.4048,0,0,3
2018-10-07,Colombo,6.9271,79.8612,0,0,1
2018-10-07,Cumbernauld,55.9457,-3.9925,0,0,1
2018-10-07,Dubai,25.2048,55.2708,0,0,1
2018-10-07,Dumbarton,55.9453,-4.5646,0,0,2
2018-10-07,Dundee,56.4620,-2.9707,0,0,2
2018-10-07,Dunfermline,56.0717,-3.4522,0,0,2
2018-10-07,East Kilbride,55.7644,-4.1770,0,0,1
2018-10-07,Edinburgh,55.9533,-3.1883,0,0,1
2018-10-07,Exeter,50.7184,-3.5339,0,0,1
2018-10-07,Falkirk,56.0019,-3.7839,0,0,4
2018-10-07,Forfar,56.6436,-2.8891,0,0,1
2018-10-07,Glasgow,55.8642,-4.2518,0,0,1
2018-10-07,Greenock,55.9565,-4.7720,0,0,1
2018-10-07,Hamilton,55.7776,-4.0537,0,0,3
2018-10-07,Hartlepool,54.6917,-1.2129,0,0,10
2018-10-07,Haskovo,41.9344,25.5554,0,0,1
2018-10-07,Hemel Hempstead,51.7532,-0.4486,0,0,8
2018-10-07,Irvine,55.6116,-4.6696,0,0,1
2018-10-07,Jeddah,21.4858,39.1925,0,0,8
2018-10-07,Kanpur,26.4499,80.3319,0,0,1
2018-10-07,Kilmarnock,55.6147,-4.4988,0,0,1
2018-10-07,Kirkcaldy,56.1168,-3.1581,0,0,1
2018-10-07,Krakow,50.0647,19.9450,0,0,1
2018-10-07,Lagos,6.5244,3.3792,0,0,2
2018-10-07,Leeds,53.8008,-1.5491,0,0,1
2018-10-07,Liverpool,53.4084,-2.9916,0,0,1
2018-10-07,Livingston,55.9007,-3.5181,0,0,3
2018-10-07,London,51.5074,-0.1278,0,0,2
2018-10-07,Londonderry,54.9966,-7.3086,0,0,1
2018-10-07,Manchester,53.4808,-2.2426,0,0,2
2018-10-07,Melbourne,-37.8136,144.9631,0,0,2
2018-10-07,Msida,35.8956,14.4869,0,0,1
2018-10-07,Musselburgh,55.9419,-3.0539,0,0,2
2018-10-07,Newcastle upon Tyne,54.9783,-1.6178,0,0,1
2018-10-07,Nottingham,52.9548,-1.1581,0,0,2
2018-10-07,Perth,56.3950,-3.4308,0,0,1
2018-10-07,Porto,41.1579,-8.6291,0,0,1
2018-10-07,Sale,53.4256,-2.3237,0,0,1
2018-10-07,Southampton,50.9097,-1.4044,0,0,2
2018-10-07,St Andrews,56.3398,-2.7967,0,0,1
2018-10-07,Sydney,-33.8688,151.2093,0,0,4
2018-10-07,Turin,45.0703,7.6869,0,0,2
